[
    {
        "id": 39133,
        "name": "Ba",
        "latitude": "-17.53430000",
        "longitude": "177.67407000",
        "country": "Fiji Islands",
        "country_id": 73
    },
    {
        "id": 39134,
        "name": "Ba Province",
        "latitude": "-17.66667000",
        "longitude": "177.66667000",
        "country": "Fiji Islands",
        "country_id": 73
    },
    {
        "id": 130810,
        "name": "Ba'dan",
        "latitude": "13.98870000",
        "longitude": "44.32360000",
        "country": "Yemen",
        "country_id": 245
    },
    {
        "id": 65932,
        "name": "Baabda",
        "latitude": "33.83389000",
        "longitude": "35.54417000",
        "country": "Lebanon",
        "country_id": 121
    },
    {
        "id": 65933,
        "name": "Baalbek",
        "latitude": "34.00583000",
        "longitude": "36.21806000",
        "country": "Lebanon",
        "country_id": 121
    },
    {
        "id": 23750,
        "name": "Baalberge",
        "latitude": "51.76469000",
        "longitude": "11.79880000",
        "country": "Germany",
        "country_id": 82
    },
    {
        "id": 77363,
        "name": "Baalder",
        "latitude": "52.58579000",
        "longitude": "6.65299000",
        "country": "Netherlands",
        "country_id": 156
    },
    {
        "id": 77364,
        "name": "Baambrugge",
        "latitude": "52.24583000",
        "longitude": "4.98889000",
        "country": "Netherlands",
        "country_id": 156
    },
    {
        "id": 81345,
        "name": "Baao",
        "latitude": "13.45490000",
        "longitude": "123.36530000",
        "country": "Philippines",
        "country_id": 174
    },
    {
        "id": 17428,
        "name": "Baar",
        "latitude": "47.19625000",
        "longitude": "8.52954000",
        "country": "Switzerland",
        "country_id": 214
    },
    {
        "id": 23751,
        "name": "Baar-Ebenhausen",
        "latitude": "48.67065000",
        "longitude": "11.46983000",
        "country": "Germany",
        "country_id": 82
    },
    {
        "id": 104776,
        "name": "Baardheere",
        "latitude": "2.34464000",
        "longitude": "42.27644000",
        "country": "Somalia",
        "country_id": 203
    },
    {
        "id": 77365,
        "name": "Baardwijk",
        "latitude": "51.69246000",
        "longitude": "5.09628000",
        "country": "Netherlands",
        "country_id": 156
    },
    {
        "id": 8639,
        "name": "Baarle-Hertog",
        "latitude": "51.40504000",
        "longitude": "4.89226000",
        "country": "Belgium",
        "country_id": 22
    },
    {
        "id": 77366,
        "name": "Baarle-Nassau",
        "latitude": "51.44750000",
        "longitude": "4.92917000",
        "country": "Netherlands",
        "country_id": 156
    },
    {
        "id": 77367,
        "name": "Baarlo",
        "latitude": "51.33083000",
        "longitude": "6.09444000",
        "country": "Netherlands",
        "country_id": 156
    },
    {
        "id": 77368,
        "name": "Baarn",
        "latitude": "52.21167000",
        "longitude": "5.28750000",
        "country": "Netherlands",
        "country_id": 156
    },
    {
        "id": 145804,
        "name": "Baay",
        "latitude": "18.11888889",
        "longitude": "120.57527778",
        "country": "Philippines",
        "country_id": 174
    },
    {
        "id": 81346,
        "name": "Baay",
        "latitude": "18.11880000",
        "longitude": "120.57530000",
        "country": "Philippines",
        "country_id": 174
    },
    {
        "id": 153216,
        "name": "Bab Al Moatham",
        "latitude": "33.36014170",
        "longitude": "44.36507700",
        "country": "Iraq",
        "country_id": 104
    },
    {
        "id": 153217,
        "name": "Bab Al Sharqi",
        "latitude": "33.33249060",
        "longitude": "44.41407910",
        "country": "Iraq",
        "country_id": 104
    },
    {
        "id": 31254,
        "name": "Bab Ezzouar",
        "latitude": "36.72615000",
        "longitude": "3.18291000",
        "country": "Algeria",
        "country_id": 4
    },
    {
        "id": 146728,
        "name": "Baba",
        "latitude": "47.34026800",
        "longitude": "23.74561100",
        "country": "Romania",
        "country_id": 181
    },
    {
        "id": 90017,
        "name": "Baba Ana",
        "latitude": "44.96667000",
        "longitude": "26.45000000",
        "country": "Romania",
        "country_id": 181
    },
    {
        "id": 146987,
        "name": "Baba Khanjar",
        "latitude": "35.55166667",
        "longitude": "48.54972222",
        "country": "Iran",
        "country_id": 103
    },
    {
        "id": 150698,
        "name": "Baba Monir",
        "latitude": "30.07159140",
        "longitude": "51.20029090",
        "country": "Iran",
        "country_id": 103
    },
    {
        "id": 146988,
        "name": "Baba Pir",
        "latitude": "34.61416667",
        "longitude": "48.40194444",
        "country": "Iran",
        "country_id": 103
    },
    {
        "id": 146989,
        "name": "Baba Qasem",
        "latitude": "34.08000000",
        "longitude": "48.44805556",
        "country": "Iran",
        "country_id": 103
    },
    {
        "id": 90018,
        "name": "Babadag",
        "latitude": "44.90000000",
        "longitude": "28.71667000",
        "country": "Romania",
        "country_id": 181
    },
    {
        "id": 107252,
        "name": "Babadağ",
        "latitude": "37.80764000",
        "longitude": "28.85665000",
        "country": "Turkey",
        "country_id": 225
    },
    {
        "id": 107254,
        "name": "Babaeski",
        "latitude": "41.43250000",
        "longitude": "27.09306000",
        "country": "Turkey",
        "country_id": 225
    },
    {
        "id": 81347,
        "name": "Babag",
        "latitude": "7.73309000",
        "longitude": "126.07130000",
        "country": "Philippines",
        "country_id": 174
    },
    {
        "id": 144882,
        "name": "Babag",
        "latitude": "7.73305556",
        "longitude": "126.07138889",
        "country": "Philippines",
        "country_id": 174
    },
    {
        "id": 144117,
        "name": "Babag",
        "latitude": "7.73305556",
        "longitude": "126.07138889",
        "country": "Philippines",
        "country_id": 174
    },
    {
        "id": 150399,
        "name": "Babaheydar",
        "latitude": "32.33058500",
        "longitude": "50.45960420",
        "country": "Iran",
        "country_id": 103
    },
    {
        "id": 31485,
        "name": "Babahoyo",
        "latitude": "-1.80217000",
        "longitude": "-79.53443000",
        "country": "Ecuador",
        "country_id": 64
    },
    {
        "id": 58103,
        "name": "Babai",
        "latitude": "22.70256000",
        "longitude": "77.93494000",
        "country": "India",
        "country_id": 101
    },
    {
        "id": 76787,
        "name": "Babana",
        "latitude": "10.42949000",
        "longitude": "3.81495000",
        "country": "Nigeria",
        "country_id": 161
    },
    {
        "id": 150638,
        "name": "BabAnar",
        "latitude": "28.96416700",
        "longitude": "53.21638900",
        "country": "Iran",
        "country_id": 103
    },
    {
        "id": 109337,
        "name": "Babanka",
        "latitude": "48.70971000",
        "longitude": "30.44827000",
        "country": "Ukraine",
        "country_id": 230
    },
    {
        "id": 19137,
        "name": "Babanki",
        "latitude": "6.11667000",
        "longitude": "10.25000000",
        "country": "Cameroon",
        "country_id": 38
    },
    {
        "id": 150736,
        "name": "Babarashani",
        "latitude": "35.67817150",
        "longitude": "47.79385330",
        "country": "Iran",
        "country_id": 103
    },
    {
        "id": 56185,
        "name": "Babat",
        "latitude": "-7.11282000",
        "longitude": "112.16354000",
        "country": "Indonesia",
        "country_id": 102
    },
    {
        "id": 109043,
        "name": "Babati",
        "latitude": "-4.21667000",
        "longitude": "35.75000000",
        "country": "Tanzania",
        "country_id": 218
    },
    {
        "id": 148069,
        "name": "Babatngon",
        "latitude": "11.42073333",
        "longitude": "124.84342500",
        "country": "Philippines",
        "country_id": 174
    },
    {
        "id": 81348,
        "name": "Babatngon",
        "latitude": "11.42380000",
        "longitude": "124.84490000",
        "country": "Philippines",
        "country_id": 174
    },
    {
        "id": 97737,
        "name": "Babayevo",
        "latitude": "59.39360000",
        "longitude": "35.93710000",
        "country": "Russia",
        "country_id": 182
    },
    {
        "id": 97738,
        "name": "Babayevskiy Rayon",
        "latitude": "59.50000000",
        "longitude": "36.00000000",
        "country": "Russia",
        "country_id": 182
    },
    {
        "id": 97739,
        "name": "Babayurt",
        "latitude": "43.60020000",
        "longitude": "46.77888000",
        "country": "Russia",
        "country_id": 182
    },
    {
        "id": 97740,
        "name": "Babayurtovskiy Rayon",
        "latitude": "43.58333000",
        "longitude": "47.00000000",
        "country": "Russia",
        "country_id": 182
    },
    {
        "id": 10466,
        "name": "Babaçulândia",
        "latitude": "-7.20516000",
        "longitude": "-47.76821000",
        "country": "Brazil",
        "country_id": 31
    },
    {
        "id": 77369,
        "name": "Babberich",
        "latitude": "51.90750000",
        "longitude": "6.11111000",
        "country": "Netherlands",
        "country_id": 156
    },
    {
        "id": 111714,
        "name": "Babbitt",
        "latitude": "47.70853000",
        "longitude": "-91.94460000",
        "country": "United States",
        "country_id": 233
    },
    {
        "id": 23752,
        "name": "Babenhausen",
        "latitude": "48.14497000",
        "longitude": "10.25325000",
        "country": "Germany",
        "country_id": 82
    },
    {
        "id": 23753,
        "name": "Babenhausen",
        "latitude": "49.96519000",
        "longitude": "8.95129000",
        "country": "Germany",
        "country_id": 82
    },
    {
        "id": 23754,
        "name": "Babensham",
        "latitude": "48.08333000",
        "longitude": "12.26667000",
        "country": "Germany",
        "country_id": 82
    },
    {
        "id": 57779,
        "name": "Baberu",
        "latitude": "25.54711000",
        "longitude": "80.70443000",
        "country": "India",
        "country_id": 101
    },
    {
        "id": 90019,
        "name": "Babeţi",
        "latitude": "45.31667000",
        "longitude": "26.38333000",
        "country": "Romania",
        "country_id": 181
    },
    {
        "id": 85788,
        "name": "Babiak",
        "latitude": "52.34530000",
        "longitude": "18.66663000",
        "country": "Poland",
        "country_id": 176
    },
    {
        "id": 85789,
        "name": "Babica",
        "latitude": "49.93476000",
        "longitude": "21.87035000",
        "country": "Poland",
        "country_id": 176
    },
    {
        "id": 22111,
        "name": "Babice",
        "latitude": "49.12167000",
        "longitude": "17.48075000",
        "country": "Czech Republic",
        "country_id": 58
    },
    {
        "id": 85790,
        "name": "Babice",
        "latitude": "50.05565000",
        "longitude": "19.19955000",
        "country": "Poland",
        "country_id": 176
    },
    {
        "id": 32600,
        "name": "Babilafuente",
        "latitude": "40.97704000",
        "longitude": "-5.42554000",
        "country": "Spain",
        "country_id": 207
    },
    {
        "id": 85791,
        "name": "Babimost",
        "latitude": "52.16488000",
        "longitude": "15.82769000",
        "country": "Poland",
        "country_id": 176
    },
    {
        "id": 57782,
        "name": "Babina",
        "latitude": "25.23947000",
        "longitude": "78.47028000",
        "country": "India",
        "country_id": 101
    },
    {
        "id": 54382,
        "name": "Babina Greda",
        "latitude": "45.11722000",
        "longitude": "18.53694000",
        "country": "Croatia",
        "country_id": 55
    },
    {
        "id": 4059,
        "name": "Babinda",
        "latitude": "-17.34390000",
        "longitude": "145.92265000",
        "country": "Australia",
        "country_id": 14
    },
    {
        "id": 97741,
        "name": "Babino",
        "latitude": "56.22564000",
        "longitude": "43.62380000",
        "country": "Russia",
        "country_id": 182
    },
    {
        "id": 81349,
        "name": "Babo-Pangulo",
        "latitude": "15.08333000",
        "longitude": "120.51667000",
        "country": "Philippines",
        "country_id": 174
    },
    {
        "id": 134595,
        "name": "Babol",
        "latitude": "36.55132000",
        "longitude": "52.67895000",
        "country": "Iran",
        "country_id": 103
    },
    {
        "id": 146990,
        "name": "Babolqani",
        "latitude": "34.24277778",
        "longitude": "49.05750000",
        "country": "Iran",
        "country_id": 103
    },
    {
        "id": 134596,
        "name": "Babolsar",
        "latitude": "36.70251000",
        "longitude": "52.65760000",
        "country": "Iran",
        "country_id": 103
    },
    {
        "id": 65973,
        "name": "Babonneau Proper",
        "latitude": "14.00535000",
        "longitude": "-60.94640000",
        "country": "Saint Lucia",
        "country_id": 186
    },
    {
        "id": 31253,
        "name": "BABOR - VILLE",
        "latitude": "36.48994000",
        "longitude": "5.53930000",
        "country": "Algeria",
        "country_id": 4
    },
    {
        "id": 68477,
        "name": "Baborigame",
        "latitude": "26.42962000",
        "longitude": "-107.26857000",
        "country": "Mexico",
        "country_id": 142
    },
    {
        "id": 85792,
        "name": "Baborów",
        "latitude": "50.15760000",
        "longitude": "17.98513000",
        "country": "Poland",
        "country_id": 176
    },
    {
        "id": 85793,
        "name": "Baboszewo",
        "latitude": "52.68070000",
        "longitude": "20.25527000",
        "country": "Poland",
        "country_id": 176
    },
    {
        "id": 58104,
        "name": "Babra",
        "latitude": "21.84577000",
        "longitude": "71.30544000",
        "country": "India",
        "country_id": 101
    },
    {
        "id": 57780,
        "name": "Babrala",
        "latitude": "28.26419000",
        "longitude": "78.40560000",
        "country": "India",
        "country_id": 101
    },
    {
        "id": 15816,
        "name": "Babruysk",
        "latitude": "53.13840000",
        "longitude": "29.22140000",
        "country": "Belarus",
        "country_id": 21
    },
    {
        "id": 15817,
        "name": "Babruyski Rayon",
        "latitude": "53.08333000",
        "longitude": "29.16667000",
        "country": "Belarus",
        "country_id": 21
    },
    {
        "id": 111715,
        "name": "Babson Park",
        "latitude": "27.83197000",
        "longitude": "-81.52230000",
        "country": "United States",
        "country_id": 233
    },
    {
        "id": 97742,
        "name": "Babstovo",
        "latitude": "48.11853000",
        "longitude": "132.47913000",
        "country": "Russia",
        "country_id": 182
    },
    {
        "id": 19295,
        "name": "Babu",
        "latitude": "24.41667000",
        "longitude": "111.51667000",
        "country": "China",
        "country_id": 45
    },
    {
        "id": 81350,
        "name": "Babug",
        "latitude": "12.37325000",
        "longitude": "121.04171000",
        "country": "Philippines",
        "country_id": 174
    },
    {
        "id": 57781,
        "name": "Babugarh",
        "latitude": "28.72353000",
        "longitude": "77.84677000",
        "country": "India",
        "country_id": 101
    },
    {
        "id": 97743,
        "name": "Babugent",
        "latitude": "43.27942000",
        "longitude": "43.55020000",
        "country": "Russia",
        "country_id": 182
    },
    {
        "id": 76788,
        "name": "Babura",
        "latitude": "12.77256000",
        "longitude": "9.01525000",
        "country": "Nigeria",
        "country_id": 161
    },
    {
        "id": 68478,
        "name": "Baburia",
        "latitude": "25.84289000",
        "longitude": "-108.20276000",
        "country": "Mexico",
        "country_id": 142
    },
    {
        "id": 97744,
        "name": "Babushkin",
        "latitude": "55.86931000",
        "longitude": "37.72966000",
        "country": "Russia",
        "country_id": 182
    },
    {
        "id": 97745,
        "name": "Babushkin",
        "latitude": "51.71222000",
        "longitude": "105.86472000",
        "country": "Russia",
        "country_id": 182
    },
    {
        "id": 48329,
        "name": "Babworth",
        "latitude": "53.31799000",
        "longitude": "-0.97583000",
        "country": "United Kingdom",
        "country_id": 232
    },
    {
        "id": 111716,
        "name": "Babylon",
        "latitude": "40.69566000",
        "longitude": "-73.32568000",
        "country": "United States",
        "country_id": 233
    },
    {
        "id": 97746,
        "name": "Babynino",
        "latitude": "54.39385000",
        "longitude": "35.77013000",
        "country": "Russia",
        "country_id": 182
    },
    {
        "id": 97747,
        "name": "Babyninskiy Rayon",
        "latitude": "54.41667000",
        "longitude": "35.75000000",
        "country": "Russia",
        "country_id": 182
    },
    {
        "id": 55199,
        "name": "Babócsa",
        "latitude": "46.04155000",
        "longitude": "17.34332000",
        "country": "Hungary",
        "country_id": 99
    },
    {
        "id": 90020,
        "name": "Babța",
        "latitude": "47.45778000",
        "longitude": "22.94283000",
        "country": "Romania",
        "country_id": 181
    },
    {
        "id": 68479,
        "name": "Baca",
        "latitude": "21.10874000",
        "longitude": "-89.39866000",
        "country": "Mexico",
        "country_id": 142
    },
    {
        "id": 111717,
        "name": "Baca County",
        "latitude": "37.31918000",
        "longitude": "-102.56047000",
        "country": "United States",
        "country_id": 233
    },
    {
        "id": 81351,
        "name": "Bacabac",
        "latitude": "15.72477000",
        "longitude": "120.42816000",
        "country": "Philippines",
        "country_id": 174
    },
    {
        "id": 145357,
        "name": "Bacabac",
        "latitude": "15.72472222",
        "longitude": "120.42805556",
        "country": "Philippines",
        "country_id": 174
    },
    {
        "id": 68480,
        "name": "Bacabachi",
        "latitude": "26.89471000",
        "longitude": "-109.39320000",
        "country": "Mexico",
        "country_id": 142
    },
    {
        "id": 10467,
        "name": "Bacabal",
        "latitude": "-4.29167000",
        "longitude": "-44.79167000",
        "country": "Brazil",
        "country_id": 31
    },
    {
        "id": 68481,
        "name": "Bacabchén",
        "latitude": "20.28903000",
        "longitude": "-90.05602000",
        "country": "Mexico",
        "country_id": 142
    },
    {
        "id": 10468,
        "name": "Bacabeira",
        "latitude": "-2.86866000",
        "longitude": "-44.34505000",
        "country": "Brazil",
        "country_id": 31
    },
    {
        "id": 81352,
        "name": "Bacacay",
        "latitude": "13.29340000",
        "longitude": "123.79190000",
        "country": "Philippines",
        "country_id": 174
    },
    {
        "id": 68482,
        "name": "Bacadéhuachi",
        "latitude": "29.80872000",
        "longitude": "-109.14054000",
        "country": "Mexico",
        "country_id": 142
    },
    {
        "id": 145805,
        "name": "Bacag",
        "latitude": "15.93000000",
        "longitude": "120.58222222",
        "country": "Philippines",
        "country_id": 174
    },
    {
        "id": 81353,
        "name": "Bacag",
        "latitude": "15.93000000",
        "longitude": "120.58222000",
        "country": "Philippines",
        "country_id": 174
    },
    {
        "id": 81354,
        "name": "Bacalan",
        "latitude": "11.54640000",
        "longitude": "122.08490000",
        "country": "Philippines",
        "country_id": 174
    },
    {
        "id": 68483,
        "name": "Bacalar",
        "latitude": "18.68109000",
        "longitude": "-88.39333000",
        "country": "Mexico",
        "country_id": 142
    },
    {
        "id": 68484,
        "name": "Bacame Nuevo",
        "latitude": "27.15899000",
        "longitude": "-109.59286000",
        "country": "Mexico",
        "country_id": 142
    },
    {
        "id": 68485,
        "name": "Bacanora",
        "latitude": "28.98152000",
        "longitude": "-109.40012000",
        "country": "Mexico",
        "country_id": 142
    },
    {
        "id": 151348,
        "name": "Bacares",
        "latitude": "0.00000000",
        "longitude": "0.00000000",
        "country": "Spain",
        "country_id": 207
    },
    {
        "id": 145806,
        "name": "Bacarra",
        "latitude": "18.25290000",
        "longitude": "120.61250000",
        "country": "Philippines",
        "country_id": 174
    },
    {
        "id": 81355,
        "name": "Bacarra",
        "latitude": "18.25290000",
        "longitude": "120.61250000",
        "country": "Philippines",
        "country_id": 174
    },
    {
        "id": 81356,
        "name": "Bacayawan",
        "latitude": "7.76667000",
        "longitude": "124.23333000",
        "country": "Philippines",
        "country_id": 174
    },
    {
        "id": 144613,
        "name": "Bacayawan",
        "latitude": "7.76666667",
        "longitude": "124.23333333",
        "country": "Philippines",
        "country_id": 174
    },
    {
        "id": 39699,
        "name": "Baccarat",
        "latitude": "48.44984000",
        "longitude": "6.73946000",
        "country": "France",
        "country_id": 75
    },
    {
        "id": 4060,
        "name": "Bacchus Marsh",
        "latitude": "-37.67268000",
        "longitude": "144.43829000",
        "country": "Australia",
        "country_id": 14
    },
    {
        "id": 90021,
        "name": "Bacea",
        "latitude": "44.39824000",
        "longitude": "24.63759000",
        "country": "Romania",
        "country_id": 181
    },
    {
        "id": 135728,
        "name": "Baceno",
        "latitude": "46.26062000",
        "longitude": "8.31874000",
        "country": "Italy",
        "country_id": 107
    },
    {
        "id": 68486,
        "name": "Bacerac",
        "latitude": "30.35565000",
        "longitude": "-108.93147000",
        "country": "Mexico",
        "country_id": 142
    },
    {
        "id": 23755,
        "name": "Bach",
        "latitude": "49.40000000",
        "longitude": "12.38333000",
        "country": "Germany",
        "country_id": 82
    },
    {
        "id": 68487,
        "name": "Bachajón",
        "latitude": "17.03963000",
        "longitude": "-92.18986000",
        "country": "Mexico",
        "country_id": 142
    },
    {
        "id": 39700,
        "name": "Bachant",
        "latitude": "50.21540000",
        "longitude": "3.86835000",
        "country": "France",
        "country_id": 75
    },
    {
        "id": 23756,
        "name": "Bacharach",
        "latitude": "50.05725000",
        "longitude": "7.76948000",
        "country": "Germany",
        "country_id": 82
    },
    {
        "id": 97748,
        "name": "Bachatskiy",
        "latitude": "54.29270000",
        "longitude": "86.12850000",
        "country": "Russia",
        "country_id": 182
    },
    {
        "id": 81357,
        "name": "Bachauan",
        "latitude": "11.20670000",
        "longitude": "123.96340000",
        "country": "Philippines",
        "country_id": 174
    },
    {
        "id": 17429,
        "name": "Bachenbülach",
        "latitude": "47.50317000",
        "longitude": "8.54556000",
        "country": "Switzerland",
        "country_id": 214
    },
    {
        "id": 23757,
        "name": "Bachhagel",
        "latitude": "48.63217000",
        "longitude": "10.32045000",
        "country": "Germany",
        "country_id": 82
    },
    {
        "id": 57783,
        "name": "Bachhraon",
        "latitude": "28.92694000",
        "longitude": "78.23456000",
        "country": "India",
        "country_id": 101
    },
    {
        "id": 57784,
        "name": "Bachhrawan",
        "latitude": "26.47090000",
        "longitude": "81.11580000",
        "country": "India",
        "country_id": 101
    },
    {
        "id": 97749,
        "name": "Bachi-Yurt",
        "latitude": "43.22417000",
        "longitude": "46.19423000",
        "country": "Russia",
        "country_id": 182
    },
    {
        "id": 68488,
        "name": "Bachigualatito",
        "latitude": "24.71344000",
        "longitude": "-107.46938000",
        "country": "Mexico",
        "country_id": 142
    },
    {
        "id": 1715,
        "name": "Bachmanning",
        "latitude": "48.13104000",
        "longitude": "13.79436000",
        "country": "Austria",
        "country_id": 15
    },
    {
        "id": 68489,
        "name": "Bachoco",
        "latitude": "25.69687000",
        "longitude": "-108.81437000",
        "country": "Mexico",
        "country_id": 142
    },
    {
        "id": 68490,
        "name": "Bachomobampo Número Dos",
        "latitude": "25.73888000",
        "longitude": "-109.14776000",
        "country": "Mexico",
        "country_id": 142
    },
    {
        "id": 85794,
        "name": "Bachowice",
        "latitude": "49.95812000",
        "longitude": "19.49369000",
        "country": "Poland",
        "country_id": 176
    },
    {
        "id": 39701,
        "name": "Bachy",
        "latitude": "50.55079000",
        "longitude": "3.25976000",
        "country": "France",
        "country_id": 75
    },
    {
        "id": 68491,
        "name": "Bachíniva",
        "latitude": "28.76801000",
        "longitude": "-107.25559000",
        "country": "Mexico",
        "country_id": 142
    },
    {
        "id": 90022,
        "name": "Baciu",
        "latitude": "46.80000000",
        "longitude": "23.51667000",
        "country": "Romania",
        "country_id": 181
    },
    {
        "id": 90023,
        "name": "Baciu",
        "latitude": "44.33152000",
        "longitude": "25.44429000",
        "country": "Romania",
        "country_id": 181
    },
    {
        "id": 111718,
        "name": "Back Mountain",
        "latitude": "41.33591000",
        "longitude": "-75.99631000",
        "country": "United States",
        "country_id": 233
    },
    {
        "id": 103025,
        "name": "Backa",
        "latitude": "64.98333000",
        "longitude": "21.06667000",
        "country": "Sweden",
        "country_id": 213
    },
    {
        "id": 23758,
        "name": "Backnang",
        "latitude": "48.94743000",
        "longitude": "9.43718000",
        "country": "Germany",
        "country_id": 82
    },
    {
        "id": 48330,
        "name": "Backworth",
        "latitude": "55.04229000",
        "longitude": "-1.52779000",
        "country": "United Kingdom",
        "country_id": 232
    },
    {
        "id": 81358,
        "name": "Baclayon",
        "latitude": "9.62639000",
        "longitude": "123.89417000",
        "country": "Philippines",
        "country_id": 174
    },
    {
        "id": 111719,
        "name": "Bacliff",
        "latitude": "29.50690000",
        "longitude": "-94.99243000",
        "country": "United States",
        "country_id": 233
    },
    {
        "id": 145807,
        "name": "Bacnar",
        "latitude": "15.88638889",
        "longitude": "120.34416667",
        "country": "Philippines",
        "country_id": 174
    },
    {
        "id": 81359,
        "name": "Bacnar",
        "latitude": "15.88641000",
        "longitude": "120.34419000",
        "country": "Philippines",
        "country_id": 174
    },
    {
        "id": 81360,
        "name": "Bacnor East",
        "latitude": "17.03449000",
        "longitude": "121.70375000",
        "country": "Philippines",
        "country_id": 174
    },
    {
        "id": 145118,
        "name": "Bacnor East",
        "latitude": "17.03444444",
        "longitude": "121.70361111",
        "country": "Philippines",
        "country_id": 174
    },
    {
        "id": 145808,
        "name": "Bacnotan",
        "latitude": "16.73333000",
        "longitude": "120.38333000",
        "country": "Philippines",
        "country_id": 174
    },
    {
        "id": 81361,
        "name": "Bacnotan",
        "latitude": "16.72222000",
        "longitude": "120.35250000",
        "country": "Philippines",
        "country_id": 174
    },
    {
        "id": 81362,
        "name": "Baco",
        "latitude": "13.35730000",
        "longitude": "121.09830000",
        "country": "Philippines",
        "country_id": 174
    },
    {
        "id": 68492,
        "name": "Bacobampo",
        "latitude": "26.98239000",
        "longitude": "-109.65350000",
        "country": "Mexico",
        "country_id": 142
    },
    {
        "id": 135729,
        "name": "Bacoli",
        "latitude": "40.79672000",
        "longitude": "14.07349000",
        "country": "Italy",
        "country_id": 107
    },
    {
        "id": 81363,
        "name": "Bacolod",
        "latitude": "12.22854000",
        "longitude": "123.50851000",
        "country": "Philippines",
        "country_id": 174
    },
    {
        "id": 81364,
        "name": "Bacolod",
        "latitude": "8.93167000",
        "longitude": "126.28944000",
        "country": "Philippines",
        "country_id": 174
    },
    {
        "id": 81365,
        "name": "Bacolod",
        "latitude": "8.11667000",
        "longitude": "123.91667000",
        "country": "Philippines",
        "country_id": 174
    },
    {
        "id": 144379,
        "name": "Bacolod",
        "latitude": "8.93166667",
        "longitude": "126.28944444",
        "country": "Philippines",
        "country_id": 174
    },
    {
        "id": 81366,
        "name": "Bacolod City",
        "latitude": "10.66667000",
        "longitude": "122.95000000",
        "country": "Philippines",
        "country_id": 174
    },
    {
        "id": 144614,
        "name": "Bacolod Grande",
        "latitude": "7.88333000",
        "longitude": "124.11667000",
        "country": "Philippines",
        "country_id": 174
    },
    {
        "id": 144615,
        "name": "Bacolod-Kalawi",
        "latitude": "7.85551944",
        "longitude": "124.13982778",
        "country": "Philippines",
        "country_id": 174
    },
    {
        "id": 145358,
        "name": "Bacolor",
        "latitude": "14.99842778",
        "longitude": "120.65265000",
        "country": "Philippines",
        "country_id": 174
    },
    {
        "id": 81367,
        "name": "Bacolor",
        "latitude": "15.00030000",
        "longitude": "120.65200000",
        "country": "Philippines",
        "country_id": 174
    },
    {
        "id": 81368,
        "name": "Bacon",
        "latitude": "13.03778000",
        "longitude": "124.04111000",
        "country": "Philippines",
        "country_id": 174
    },
    {
        "id": 111720,
        "name": "Bacon County",
        "latitude": "31.55367000",
        "longitude": "-82.45269000",
        "country": "United States",
        "country_id": 233
    },
    {
        "id": 81369,
        "name": "Bacong",
        "latitude": "9.73930000",
        "longitude": "124.56560000",
        "country": "Philippines",
        "country_id": 174
    },
    {
        "id": 81370,
        "name": "Bacoor",
        "latitude": "14.45896000",
        "longitude": "120.93851000",
        "country": "Philippines",
        "country_id": 174
    },
    {
        "id": 68493,
        "name": "Bacorehuis",
        "latitude": "26.31749000",
        "longitude": "-109.08510000",
        "country": "Mexico",
        "country_id": 142
    },
    {
        "id": 90024,
        "name": "Bacova",
        "latitude": "45.66410000",
        "longitude": "21.55238000",
        "country": "Romania",
        "country_id": 181
    },
    {
        "id": 39702,
        "name": "Bacqueville-en-Caux",
        "latitude": "49.78761000",
        "longitude": "0.99927000",
        "country": "France",
        "country_id": 75
    },
    {
        "id": 145359,
        "name": "Bacsay",
        "latitude": "15.62055556",
        "longitude": "120.34333333",
        "country": "Philippines",
        "country_id": 174
    },
    {
        "id": 81371,
        "name": "Bacsay",
        "latitude": "15.62063000",
        "longitude": "120.34341000",
        "country": "Philippines",
        "country_id": 174
    },
    {
        "id": 145809,
        "name": "Bactad Proper",
        "latitude": "15.97833333",
        "longitude": "120.61027778",
        "country": "Philippines",
        "country_id": 174
    },
    {
        "id": 81372,
        "name": "Bactad Proper",
        "latitude": "15.97842000",
        "longitude": "120.61026000",
        "country": "Philippines",
        "country_id": 174
    },
    {
        "id": 48331,
        "name": "Bacton",
        "latitude": "52.26667000",
        "longitude": "1.01667000",
        "country": "United Kingdom",
        "country_id": 232
    },
    {
        "id": 135730,
        "name": "Bacu Abis",
        "latitude": "39.24301000",
        "longitude": "8.46491000",
        "country": "Italy",
        "country_id": 107
    },
    {
        "id": 81373,
        "name": "Bacuag",
        "latitude": "9.60806000",
        "longitude": "125.63889000",
        "country": "Philippines",
        "country_id": 174
    },
    {
        "id": 144380,
        "name": "Bacuag",
        "latitude": "9.60810000",
        "longitude": "125.64048611",
        "country": "Philippines",
        "country_id": 174
    },
    {
        "id": 68494,
        "name": "Bacubirito",
        "latitude": "25.80944000",
        "longitude": "-107.91500000",
        "country": "Mexico",
        "country_id": 142
    },
    {
        "id": 81374,
        "name": "Baculin",
        "latitude": "7.45250000",
        "longitude": "126.58417000",
        "country": "Philippines",
        "country_id": 174
    },
    {
        "id": 144883,
        "name": "Baculin",
        "latitude": "7.45250000",
        "longitude": "126.58416667",
        "country": "Philippines",
        "country_id": 174
    },
    {
        "id": 144118,
        "name": "Baculin",
        "latitude": "7.45250000",
        "longitude": "126.58416667",
        "country": "Philippines",
        "country_id": 174
    },
    {
        "id": 144769,
        "name": "Baculongan",
        "latitude": "16.80000000",
        "longitude": "120.83333333",
        "country": "Philippines",
        "country_id": 174
    },
    {
        "id": 81375,
        "name": "Baculongan",
        "latitude": "16.80000000",
        "longitude": "120.83330000",
        "country": "Philippines",
        "country_id": 174
    },
    {
        "id": 145810,
        "name": "Bacundao Weste",
        "latitude": "15.91527778",
        "longitude": "120.47666667",
        "country": "Philippines",
        "country_id": 174
    },
    {
        "id": 81376,
        "name": "Bacundao Weste",
        "latitude": "15.91536000",
        "longitude": "120.47668000",
        "country": "Philippines",
        "country_id": 174
    },
    {
        "id": 81377,
        "name": "Bacungan",
        "latitude": "9.91056000",
        "longitude": "118.70222000",
        "country": "Philippines",
        "country_id": 174
    },
    {
        "id": 48332,
        "name": "Bacup",
        "latitude": "53.70336000",
        "longitude": "-2.20070000",
        "country": "United Kingdom",
        "country_id": 232
    },
    {
        "id": 10469,
        "name": "Bacuri",
        "latitude": "-1.65142000",
        "longitude": "-45.21995000",
        "country": "Brazil",
        "country_id": 31
    },
    {
        "id": 10470,
        "name": "Bacurituba",
        "latitude": "-2.64645000",
        "longitude": "-44.65477000",
        "country": "Brazil",
        "country_id": 31
    },
    {
        "id": 81378,
        "name": "Bacuyangan",
        "latitude": "9.63700000",
        "longitude": "122.47210000",
        "country": "Philippines",
        "country_id": 174
    },
    {
        "id": 90025,
        "name": "Bacău",
        "latitude": "46.56718000",
        "longitude": "26.91384000",
        "country": "Romania",
        "country_id": 181
    },
    {
        "id": 23759,
        "name": "Bad Abbach",
        "latitude": "48.93754000",
        "longitude": "12.04494000",
        "country": "Germany",
        "country_id": 82
    },
    {
        "id": 23760,
        "name": "Bad Aibling",
        "latitude": "47.86380000",
        "longitude": "12.01055000",
        "country": "Germany",
        "country_id": 82
    },
    {
        "id": 23761,
        "name": "Bad Alexandersbad",
        "latitude": "50.01667000",
        "longitude": "12.01667000",
        "country": "Germany",
        "country_id": 82
    },
    {
        "id": 23762,
        "name": "Bad Arolsen",
        "latitude": "51.37982000",
        "longitude": "9.01445000",
        "country": "Germany",
        "country_id": 82
    },
    {
        "id": 1716,
        "name": "Bad Aussee",
        "latitude": "47.60998000",
        "longitude": "13.78243000",
        "country": "Austria",
        "country_id": 15
    },
    {
        "id": 111721,
        "name": "Bad Axe",
        "latitude": "43.80196000",
        "longitude": "-83.00078000",
        "country": "United States",
        "country_id": 233
    },
    {
        "id": 23763,
        "name": "Bad Bellingen",
        "latitude": "47.73147000",
        "longitude": "7.55756000",
        "country": "Germany",
        "country_id": 82
    },
    {
        "id": 23764,
        "name": "Bad Belzig",
        "latitude": "52.14184000",
        "longitude": "12.59272000",
        "country": "Germany",
        "country_id": 82
    },
    {
        "id": 23765,
        "name": "Bad Bentheim",
        "latitude": "52.30066000",
        "longitude": "7.15763000",
        "country": "Germany",
        "country_id": 82
    },
    {
        "id": 23766,
        "name": "Bad Bergzabern",
        "latitude": "49.10245000",
        "longitude": "8.00092000",
        "country": "Germany",
        "country_id": 82
    },
    {
        "id": 23767,
        "name": "Bad Berka",
        "latitude": "50.89982000",
        "longitude": "11.28245000",
        "country": "Germany",
        "country_id": 82
    },
    {
        "id": 23768,
        "name": "Bad Berleburg",
        "latitude": "51.05224000",
        "longitude": "8.39227000",
        "country": "Germany",
        "country_id": 82
    },
    {
        "id": 23769,
        "name": "Bad Berneck im Fichtelgebirge",
        "latitude": "50.04564000",
        "longitude": "11.67238000",
        "country": "Germany",
        "country_id": 82
    },
    {
        "id": 23770,
        "name": "Bad Bevensen",
        "latitude": "53.07923000",
        "longitude": "10.58129000",
        "country": "Germany",
        "country_id": 82
    },
    {
        "id": 23771,
        "name": "Bad Bibra",
        "latitude": "51.20796000",
        "longitude": "11.58517000",
        "country": "Germany",
        "country_id": 82
    },
    {
        "id": 23772,
        "name": "Bad Birnbach",
        "latitude": "48.44489000",
        "longitude": "13.09103000",
        "country": "Germany",
        "country_id": 82
    },
    {
        "id": 23773,
        "name": "Bad Blankenburg",
        "latitude": "50.68189000",
        "longitude": "11.27369000",
        "country": "Germany",
        "country_id": 82
    },
    {
        "id": 143785,
        "name": "Bad Bleiberg",
        "latitude": "46.62416667",
        "longitude": "13.68777778",
        "country": "Austria",
        "country_id": 15
    },
    {
        "id": 1717,
        "name": "Bad Blumau",
        "latitude": "47.11667000",
        "longitude": "16.05000000",
        "country": "Austria",
        "country_id": 15
    },
    {
        "id": 23774,
        "name": "Bad Bocklet",
        "latitude": "50.26648000",
        "longitude": "10.07902000",
        "country": "Germany",
        "country_id": 82
    },
    {
        "id": 23775,
        "name": "Bad Brambach",
        "latitude": "50.21667000",
        "longitude": "12.31667000",
        "country": "Germany",
        "country_id": 82
    },
    {
        "id": 23776,
        "name": "Bad Bramstedt",
        "latitude": "53.91830000",
        "longitude": "9.88424000",
        "country": "Germany",
        "country_id": 82
    },
    {
        "id": 23777,
        "name": "Bad Breisig",
        "latitude": "50.50523000",
        "longitude": "7.28861000",
        "country": "Germany",
        "country_id": 82
    },
    {
        "id": 23778,
        "name": "Bad Brückenau",
        "latitude": "50.30853000",
        "longitude": "9.78985000",
        "country": "Germany",
        "country_id": 82
    },
    {
        "id": 23779,
        "name": "Bad Buchau",
        "latitude": "48.06231000",
        "longitude": "9.61244000",
        "country": "Germany",
        "country_id": 82
    },
    {
        "id": 23780,
        "name": "Bad Camberg",
        "latitude": "50.29695000",
        "longitude": "8.26896000",
        "country": "Germany",
        "country_id": 82
    },
    {
        "id": 1718,
        "name": "Bad Deutsch-Altenburg",
        "latitude": "48.13425000",
        "longitude": "16.90624000",
        "country": "Austria",
        "country_id": 15
    },
    {
        "id": 23781,
        "name": "Bad Ditzenbach",
        "latitude": "48.58830000",
        "longitude": "9.70393000",
        "country": "Germany",
        "country_id": 82
    },
    {
        "id": 23782,
        "name": "Bad Doberan",
        "latitude": "54.10712000",
        "longitude": "11.90051000",
        "country": "Germany",
        "country_id": 82
    },
    {
        "id": 23783,
        "name": "Bad Driburg",
        "latitude": "51.73297000",
        "longitude": "9.01969000",
        "country": "Germany",
        "country_id": 82
    },
    {
        "id": 23784,
        "name": "Bad Düben",
        "latitude": "51.59174000",
        "longitude": "12.58492000",
        "country": "Germany",
        "country_id": 82
    },
    {
        "id": 23785,
        "name": "Bad Dürkheim",
        "latitude": "49.46180000",
        "longitude": "8.17236000",
        "country": "Germany",
        "country_id": 82
    },
    {
        "id": 23786,
        "name": "Bad Dürrenberg",
        "latitude": "51.29545000",
        "longitude": "12.06583000",
        "country": "Germany",
        "country_id": 82
    },
    {
        "id": 23787,
        "name": "Bad Dürrheim",
        "latitude": "48.02093000",
        "longitude": "8.53056000",
        "country": "Germany",
        "country_id": 82
    },
    {
        "id": 23788,
        "name": "Bad Eilsen",
        "latitude": "52.24215000",
        "longitude": "9.09822000",
        "country": "Germany",
        "country_id": 82
    },
    {
        "id": 143786,
        "name": "Bad Eisenkappel",
        "latitude": "46.48333333",
        "longitude": "14.60000000",
        "country": "Austria",
        "country_id": 15
    },
    {
        "id": 23789,
        "name": "Bad Elster",
        "latitude": "50.28192000",
        "longitude": "12.23430000",
        "country": "Germany",
        "country_id": 82
    },
    {
        "id": 23790,
        "name": "Bad Ems",
        "latitude": "50.33544000",
        "longitude": "7.71369000",
        "country": "Germany",
        "country_id": 82
    },
    {
        "id": 23791,
        "name": "Bad Endbach",
        "latitude": "50.75000000",
        "longitude": "8.50000000",
        "country": "Germany",
        "country_id": 82
    },
    {
        "id": 23792,
        "name": "Bad Endorf",
        "latitude": "47.90901000",
        "longitude": "12.29795000",
        "country": "Germany",
        "country_id": 82
    },
    {
        "id": 1719,
        "name": "Bad Erlach",
        "latitude": "47.72722000",
        "longitude": "16.21444000",
        "country": "Austria",
        "country_id": 15
    },
    {
        "id": 23793,
        "name": "Bad Essen",
        "latitude": "52.31667000",
        "longitude": "8.33333000",
        "country": "Germany",
        "country_id": 82
    },
    {
        "id": 23794,
        "name": "Bad Fallingbostel",
        "latitude": "52.86641000",
        "longitude": "9.69558000",
        "country": "Germany",
        "country_id": 82
    },
    {
        "id": 23795,
        "name": "Bad Feilnbach",
        "latitude": "47.77331000",
        "longitude": "12.00973000",
        "country": "Germany",
        "country_id": 82
    },
    {
        "id": 1720,
        "name": "Bad Fischau",
        "latitude": "47.83137000",
        "longitude": "16.16707000",
        "country": "Austria",
        "country_id": 15
    },
    {
        "id": 23796,
        "name": "Bad Frankenhausen",
        "latitude": "51.35609000",
        "longitude": "11.09977000",
        "country": "Germany",
        "country_id": 82
    },
    {
        "id": 23797,
        "name": "Bad Fredeburg",
        "latitude": "51.18930000",
        "longitude": "8.30978000",
        "country": "Germany",
        "country_id": 82
    },
    {
        "id": 23798,
        "name": "Bad Freienwalde",
        "latitude": "52.78730000",
        "longitude": "14.03040000",
        "country": "Germany",
        "country_id": 82
    },
    {
        "id": 23799,
        "name": "Bad Füssing",
        "latitude": "48.35100000",
        "longitude": "13.31200000",
        "country": "Germany",
        "country_id": 82
    },
    {
        "id": 1721,
        "name": "Bad Gams",
        "latitude": "46.87111000",
        "longitude": "15.22472000",
        "country": "Austria",
        "country_id": 15
    },
    {
        "id": 23800,
        "name": "Bad Gandersheim",
        "latitude": "51.87167000",
        "longitude": "10.02537000",
        "country": "Germany",
        "country_id": 82
    },
    {
        "id": 1722,
        "name": "Bad Gastein",
        "latitude": "47.11547000",
        "longitude": "13.13467000",
        "country": "Austria",
        "country_id": 15
    },
    {
        "id": 1723,
        "name": "Bad Gleichenberg",
        "latitude": "46.87556000",
        "longitude": "15.90861000",
        "country": "Austria",
        "country_id": 15
    },
    {
        "id": 1724,
        "name": "Bad Goisern",
        "latitude": "47.64252000",
        "longitude": "13.61609000",
        "country": "Austria",
        "country_id": 15
    },
    {
        "id": 23801,
        "name": "Bad Griesbach",
        "latitude": "48.45181000",
        "longitude": "13.19329000",
        "country": "Germany",
        "country_id": 82
    },
    {
        "id": 23802,
        "name": "Bad Grund",
        "latitude": "51.81021000",
        "longitude": "10.23694000",
        "country": "Germany",
        "country_id": 82
    },
    {
        "id": 1725,
        "name": "Bad Hall",
        "latitude": "48.03832000",
        "longitude": "14.20773000",
        "country": "Austria",
        "country_id": 15
    },
    {
        "id": 23803,
        "name": "Bad Harzburg",
        "latitude": "51.88268000",
        "longitude": "10.56157000",
        "country": "Germany",
        "country_id": 82
    },
    {
        "id": 23804,
        "name": "Bad Heilbrunn",
        "latitude": "47.74671000",
        "longitude": "11.45934000",
        "country": "Germany",
        "country_id": 82
    },
    {
        "id": 23805,
        "name": "Bad Herrenalb",
        "latitude": "48.79787000",
        "longitude": "8.43617000",
        "country": "Germany",
        "country_id": 82
    },
    {
        "id": 23806,
        "name": "Bad Hersfeld",
        "latitude": "50.87197000",
        "longitude": "9.70891000",
        "country": "Germany",
        "country_id": 82
    },
    {
        "id": 1726,
        "name": "Bad Hofgastein",
        "latitude": "47.17274000",
        "longitude": "13.09871000",
        "country": "Austria",
        "country_id": 15
    },
    {
        "id": 23807,
        "name": "Bad Holzhausen",
        "latitude": "52.28971000",
        "longitude": "8.53954000",
        "country": "Germany",
        "country_id": 82
    },
    {
        "id": 23808,
        "name": "Bad Homburg vor der Höhe",
        "latitude": "50.22683000",
        "longitude": "8.61816000",
        "country": "Germany",
        "country_id": 82
    },
    {
        "id": 23809,
        "name": "Bad Honnef",
        "latitude": "50.64336000",
        "longitude": "7.22780000",
        "country": "Germany",
        "country_id": 82
    },
    {
        "id": 1727,
        "name": "Bad Häring",
        "latitude": "47.51071000",
        "longitude": "12.11912000",
        "country": "Austria",
        "country_id": 15
    },
    {
        "id": 23810,
        "name": "Bad Hönningen",
        "latitude": "50.51689000",
        "longitude": "7.31195000",
        "country": "Germany",
        "country_id": 82
    },
    {
        "id": 23811,
        "name": "Bad Iburg",
        "latitude": "52.15490000",
        "longitude": "8.04216000",
        "country": "Germany",
        "country_id": 82
    },
    {
        "id": 1728,
        "name": "Bad Ischl",
        "latitude": "47.71109000",
        "longitude": "13.61893000",
        "country": "Austria",
        "country_id": 15
    },
    {
        "id": 23812,
        "name": "Bad Karlshafen",
        "latitude": "51.64263000",
        "longitude": "9.45477000",
        "country": "Germany",
        "country_id": 82
    },
    {
        "id": 146991,
        "name": "Bad Khvoreh",
        "latitude": "34.74305556",
        "longitude": "48.08027778",
        "country": "Iran",
        "country_id": 103
    },
    {
        "id": 23813,
        "name": "Bad Kissingen",
        "latitude": "50.20228000",
        "longitude": "10.07784000",
        "country": "Germany",
        "country_id": 82
    },
    {
        "id": 23814,
        "name": "Bad Kleinen",
        "latitude": "53.77134000",
        "longitude": "11.47165000",
        "country": "Germany",
        "country_id": 82
    },
    {
        "id": 143787,
        "name": "Bad Kleinkirchheim",
        "latitude": "46.81361111",
        "longitude": "13.79277778",
        "country": "Austria",
        "country_id": 15
    },
    {
        "id": 23815,
        "name": "Bad Klosterlausnitz",
        "latitude": "50.91667000",
        "longitude": "11.86667000",
        "country": "Germany",
        "country_id": 82
    },
    {
        "id": 23816,
        "name": "Bad Kohlgrub",
        "latitude": "47.66667000",
        "longitude": "11.05000000",
        "country": "Germany",
        "country_id": 82
    },
    {
        "id": 1729,
        "name": "Bad Kreuzen",
        "latitude": "48.26737000",
        "longitude": "14.80648000",
        "country": "Austria",
        "country_id": 15
    },
    {
        "id": 23817,
        "name": "Bad Kreuznach",
        "latitude": "49.84140000",
        "longitude": "7.86713000",
        "country": "Germany",
        "country_id": 82
    },
    {
        "id": 23818,
        "name": "Bad König",
        "latitude": "49.74320000",
        "longitude": "9.00750000",
        "country": "Germany",
        "country_id": 82
    },
    {
        "id": 23819,
        "name": "Bad Königshofen im Grabfeld",
        "latitude": "50.30082000",
        "longitude": "10.46887000",
        "country": "Germany",
        "country_id": 82
    },
    {
        "id": 23820,
        "name": "Bad Kösen",
        "latitude": "51.13431000",
        "longitude": "11.72203000",
        "country": "Germany",
        "country_id": 82
    },
    {
        "id": 23821,
        "name": "Bad Köstritz",
        "latitude": "50.93032000",
        "longitude": "12.01005000",
        "country": "Germany",
        "country_id": 82
    },
    {
        "id": 23822,
        "name": "Bad Laasphe",
        "latitude": "50.93139000",
        "longitude": "8.42502000",
        "country": "Germany",
        "country_id": 82
    },
    {
        "id": 23823,
        "name": "Bad Laer",
        "latitude": "52.10000000",
        "longitude": "8.08333000",
        "country": "Germany",
        "country_id": 82
    },
    {
        "id": 23824,
        "name": "Bad Langensalza",
        "latitude": "51.10771000",
        "longitude": "10.64600000",
        "country": "Germany",
        "country_id": 82
    },
    {
        "id": 23825,
        "name": "Bad Lauchstädt",
        "latitude": "51.38652000",
        "longitude": "11.86956000",
        "country": "Germany",
        "country_id": 82
    },
    {
        "id": 23826,
        "name": "Bad Lausick",
        "latitude": "51.14495000",
        "longitude": "12.64449000",
        "country": "Germany",
        "country_id": 82
    },
    {
        "id": 23827,
        "name": "Bad Lauterberg im Harz",
        "latitude": "51.63272000",
        "longitude": "10.47031000",
        "country": "Germany",
        "country_id": 82
    },
    {
        "id": 1730,
        "name": "Bad Leonfelden",
        "latitude": "48.52047000",
        "longitude": "14.29459000",
        "country": "Austria",
        "country_id": 15
    },
    {
        "id": 23828,
        "name": "Bad Liebenstein",
        "latitude": "50.81569000",
        "longitude": "10.35123000",
        "country": "Germany",
        "country_id": 82
    },
    {
        "id": 23829,
        "name": "Bad Liebenwerda",
        "latitude": "51.51826000",
        "longitude": "13.39459000",
        "country": "Germany",
        "country_id": 82
    },
    {
        "id": 23830,
        "name": "Bad Liebenzell",
        "latitude": "48.77427000",
        "longitude": "8.72971000",
        "country": "Germany",
        "country_id": 82
    },
    {
        "id": 23831,
        "name": "Bad Lippspringe",
        "latitude": "51.78333000",
        "longitude": "8.81683000",
        "country": "Germany",
        "country_id": 82
    },
    {
        "id": 23832,
        "name": "Bad Lobenstein",
        "latitude": "50.45223000",
        "longitude": "11.63930000",
        "country": "Germany",
        "country_id": 82
    },
    {
        "id": 23833,
        "name": "Bad Marienberg",
        "latitude": "50.64947000",
        "longitude": "7.94958000",
        "country": "Germany",
        "country_id": 82
    },
    {
        "id": 23834,
        "name": "Bad Meinberg",
        "latitude": "51.89588000",
        "longitude": "8.98313000",
        "country": "Germany",
        "country_id": 82
    },
    {
        "id": 23835,
        "name": "Bad Mergentheim",
        "latitude": "49.49250000",
        "longitude": "9.77361000",
        "country": "Germany",
        "country_id": 82
    },
    {
        "id": 23836,
        "name": "Bad Muskau",
        "latitude": "51.55051000",
        "longitude": "14.71240000",
        "country": "Germany",
        "country_id": 82
    },
    {
        "id": 23837,
        "name": "Bad Münder am Deister",
        "latitude": "52.19551000",
        "longitude": "9.46421000",
        "country": "Germany",
        "country_id": 82
    },
    {
        "id": 23838,
        "name": "Bad Münster am Stein-Ebernburg",
        "latitude": "49.81159000",
        "longitude": "7.84523000",
        "country": "Germany",
        "country_id": 82
    },
    {
        "id": 23839,
        "name": "Bad Münstereifel",
        "latitude": "50.55667000",
        "longitude": "6.76424000",
        "country": "Germany",
        "country_id": 82
    },
    {
        "id": 23840,
        "name": "Bad Nauheim",
        "latitude": "50.36463000",
        "longitude": "8.73859000",
        "country": "Germany",
        "country_id": 82
    },
    {
        "id": 23841,
        "name": "Bad Nenndorf",
        "latitude": "52.33703000",
        "longitude": "9.37904000",
        "country": "Germany",
        "country_id": 82
    },
    {
        "id": 23842,
        "name": "Bad Neuenahr-Ahrweiler",
        "latitude": "50.54322000",
        "longitude": "7.11130000",
        "country": "Germany",
        "country_id": 82
    },
    {
        "id": 23843,
        "name": "Bad Neustadt an der Saale",
        "latitude": "50.32174000",
        "longitude": "10.20673000",
        "country": "Germany",
        "country_id": 82
    },
    {
        "id": 23844,
        "name": "Bad Oeynhausen",
        "latitude": "52.20699000",
        "longitude": "8.80365000",
        "country": "Germany",
        "country_id": 82
    },
    {
        "id": 23845,
        "name": "Bad Oldesloe",
        "latitude": "53.81167000",
        "longitude": "10.37417000",
        "country": "Germany",
        "country_id": 82
    },
    {
        "id": 23846,
        "name": "Bad Orb",
        "latitude": "50.22788000",
        "longitude": "9.34782000",
        "country": "Germany",
        "country_id": 82
    },
    {
        "id": 23847,
        "name": "Bad Peterstal-Griesbach",
        "latitude": "48.43333000",
        "longitude": "8.21667000",
        "country": "Germany",
        "country_id": 82
    },
    {
        "id": 1731,
        "name": "Bad Pirawarth",
        "latitude": "48.45194000",
        "longitude": "16.59833000",
        "country": "Austria",
        "country_id": 15
    },
    {
        "id": 23848,
        "name": "Bad Pyrmont",
        "latitude": "51.98589000",
        "longitude": "9.25246000",
        "country": "Germany",
        "country_id": 82
    },
    {
        "id": 1732,
        "name": "Bad Radkersburg",
        "latitude": "46.68806000",
        "longitude": "15.98806000",
        "country": "Austria",
        "country_id": 15
    },
    {
        "id": 17430,
        "name": "Bad Ragaz",
        "latitude": "47.00601000",
        "longitude": "9.50266000",
        "country": "Switzerland",
        "country_id": 214
    },
    {
        "id": 23849,
        "name": "Bad Rappenau",
        "latitude": "49.23848000",
        "longitude": "9.10180000",
        "country": "Germany",
        "country_id": 82
    },
    {
        "id": 23850,
        "name": "Bad Reichenhall",
        "latitude": "47.72947000",
        "longitude": "12.87819000",
        "country": "Germany",
        "country_id": 82
    },
    {
        "id": 23851,
        "name": "Bad Rippoldsau-Schapbach",
        "latitude": "48.42883000",
        "longitude": "8.32584000",
        "country": "Germany",
        "country_id": 82
    },
    {
        "id": 23852,
        "name": "Bad Rothenfelde",
        "latitude": "52.11667000",
        "longitude": "8.16667000",
        "country": "Germany",
        "country_id": 82
    },
    {
        "id": 23853,
        "name": "Bad Saarow",
        "latitude": "52.28333000",
        "longitude": "14.06667000",
        "country": "Germany",
        "country_id": 82
    },
    {
        "id": 23854,
        "name": "Bad Sachsa",
        "latitude": "51.59499000",
        "longitude": "10.55546000",
        "country": "Germany",
        "country_id": 82
    },
    {
        "id": 23855,
        "name": "Bad Salzdetfurth",
        "latitude": "52.05777000",
        "longitude": "10.00580000",
        "country": "Germany",
        "country_id": 82
    },
    {
        "id": 23856,
        "name": "Bad Salzschlirf",
        "latitude": "50.62388000",
        "longitude": "9.50815000",
        "country": "Germany",
        "country_id": 82
    },
    {
        "id": 23857,
        "name": "Bad Salzuflen",
        "latitude": "52.08620000",
        "longitude": "8.74434000",
        "country": "Germany",
        "country_id": 82
    },
    {
        "id": 23858,
        "name": "Bad Salzungen",
        "latitude": "50.81342000",
        "longitude": "10.23610000",
        "country": "Germany",
        "country_id": 82
    },
    {
        "id": 1733,
        "name": "Bad Sankt Leonhard im Lavanttal",
        "latitude": "46.96278000",
        "longitude": "14.79167000",
        "country": "Austria",
        "country_id": 15
    },
    {
        "id": 23859,
        "name": "Bad Sassendorf",
        "latitude": "51.58333000",
        "longitude": "8.16667000",
        "country": "Germany",
        "country_id": 82
    },
    {
        "id": 1734,
        "name": "Bad Sauerbrunn",
        "latitude": "47.77439000",
        "longitude": "16.32841000",
        "country": "Austria",
        "country_id": 15
    },
    {
        "id": 1735,
        "name": "Bad Schallerbach",
        "latitude": "48.22999000",
        "longitude": "13.91925000",
        "country": "Austria",
        "country_id": 15
    },
    {
        "id": 23860,
        "name": "Bad Schandau",
        "latitude": "50.91743000",
        "longitude": "14.15494000",
        "country": "Germany",
        "country_id": 82
    },
    {
        "id": 23861,
        "name": "Bad Schlema",
        "latitude": "50.60257000",
        "longitude": "12.67288000",
        "country": "Germany",
        "country_id": 82
    },
    {
        "id": 23862,
        "name": "Bad Schmiedeberg",
        "latitude": "51.68516000",
        "longitude": "12.73483000",
        "country": "Germany",
        "country_id": 82
    },
    {
        "id": 23863,
        "name": "Bad Schussenried",
        "latitude": "48.00468000",
        "longitude": "9.65741000",
        "country": "Germany",
        "country_id": 82
    },
    {
        "id": 23864,
        "name": "Bad Schwalbach",
        "latitude": "50.14196000",
        "longitude": "8.06964000",
        "country": "Germany",
        "country_id": 82
    },
    {
        "id": 23865,
        "name": "Bad Schwartau",
        "latitude": "53.91887000",
        "longitude": "10.69691000",
        "country": "Germany",
        "country_id": 82
    },
    {
        "id": 1736,
        "name": "Bad Schönau",
        "latitude": "47.49473000",
        "longitude": "16.23410000",
        "country": "Austria",
        "country_id": 15
    },
    {
        "id": 23866,
        "name": "Bad Segeberg",
        "latitude": "53.94313000",
        "longitude": "10.30215000",
        "country": "Germany",
        "country_id": 82
    },
    {
        "id": 23867,
        "name": "Bad Soden am Taunus",
        "latitude": "50.14080000",
        "longitude": "8.50449000",
        "country": "Germany",
        "country_id": 82
    },
    {
        "id": 23868,
        "name": "Bad Soden-Salmünster",
        "latitude": "50.27574000",
        "longitude": "9.36705000",
        "country": "Germany",
        "country_id": 82
    },
    {
        "id": 23869,
        "name": "Bad Sooden-Allendorf",
        "latitude": "51.27092000",
        "longitude": "9.97483000",
        "country": "Germany",
        "country_id": 82
    },
    {
        "id": 23870,
        "name": "Bad Staffelstein",
        "latitude": "50.10199000",
        "longitude": "11.00128000",
        "country": "Germany",
        "country_id": 82
    },
    {
        "id": 23871,
        "name": "Bad Steben",
        "latitude": "50.36648000",
        "longitude": "11.64438000",
        "country": "Germany",
        "country_id": 82
    },
    {
        "id": 23872,
        "name": "Bad Suderode",
        "latitude": "51.73333000",
        "longitude": "11.11667000",
        "country": "Germany",
        "country_id": 82
    },
    {
        "id": 23873,
        "name": "Bad Sulza",
        "latitude": "51.08929000",
        "longitude": "11.62474000",
        "country": "Germany",
        "country_id": 82
    },
    {
        "id": 23874,
        "name": "Bad Säckingen",
        "latitude": "47.55371000",
        "longitude": "7.94612000",
        "country": "Germany",
        "country_id": 82
    },
    {
        "id": 23875,
        "name": "Bad Sülze",
        "latitude": "54.11084000",
        "longitude": "12.66054000",
        "country": "Germany",
        "country_id": 82
    },
    {
        "id": 1737,
        "name": "Bad Tatzmannsdorf",
        "latitude": "47.33126000",
        "longitude": "16.23067000",
        "country": "Austria",
        "country_id": 15
    },
    {
        "id": 23876,
        "name": "Bad Teinach-Zavelstein",
        "latitude": "48.69051000",
        "longitude": "8.69285000",
        "country": "Germany",
        "country_id": 82
    },
    {
        "id": 23877,
        "name": "Bad Tennstedt",
        "latitude": "51.15447000",
        "longitude": "10.83873000",
        "country": "Germany",
        "country_id": 82
    },
    {
        "id": 1738,
        "name": "Bad Traunstein",
        "latitude": "48.43850000",
        "longitude": "15.11712000",
        "country": "Austria",
        "country_id": 15
    },
    {
        "id": 23878,
        "name": "Bad Tölz",
        "latitude": "47.76111000",
        "longitude": "11.55890000",
        "country": "Germany",
        "country_id": 82
    },
    {
        "id": 23879,
        "name": "Bad Urach",
        "latitude": "48.49107000",
        "longitude": "9.40009000",
        "country": "Germany",
        "country_id": 82
    },
    {
        "id": 23880,
        "name": "Bad Vilbel",
        "latitude": "50.17866000",
        "longitude": "8.73756000",
        "country": "Germany",
        "country_id": 82
    },
    {
        "id": 1739,
        "name": "Bad Vöslau",
        "latitude": "47.96533000",
        "longitude": "16.21359000",
        "country": "Austria",
        "country_id": 15
    },
    {
        "id": 23881,
        "name": "Bad Waldsee",
        "latitude": "47.92027000",
        "longitude": "9.75490000",
        "country": "Germany",
        "country_id": 82
    },
    {
        "id": 1740,
        "name": "Bad Waltersdorf",
        "latitude": "47.16960000",
        "longitude": "16.00870000",
        "country": "Austria",
        "country_id": 15
    },
    {
        "id": 23882,
        "name": "Bad Wiessee",
        "latitude": "47.71667000",
        "longitude": "11.71667000",
        "country": "Germany",
        "country_id": 82
    },
    {
        "id": 23883,
        "name": "Bad Wildbad",
        "latitude": "48.75071000",
        "longitude": "8.55040000",
        "country": "Germany",
        "country_id": 82
    },
    {
        "id": 23884,
        "name": "Bad Wildungen",
        "latitude": "51.11963000",
        "longitude": "9.12475000",
        "country": "Germany",
        "country_id": 82
    },
    {
        "id": 23885,
        "name": "Bad Wilsnack",
        "latitude": "52.95607000",
        "longitude": "11.94903000",
        "country": "Germany",
        "country_id": 82
    },
    {
        "id": 23886,
        "name": "Bad Wimpfen",
        "latitude": "49.22971000",
        "longitude": "9.15648000",
        "country": "Germany",
        "country_id": 82
    },
    {
        "id": 23887,
        "name": "Bad Windsheim",
        "latitude": "49.50274000",
        "longitude": "10.41539000",
        "country": "Germany",
        "country_id": 82
    },
    {
        "id": 23888,
        "name": "Bad Wurzach",
        "latitude": "47.90799000",
        "longitude": "9.89686000",
        "country": "Germany",
        "country_id": 82
    },
    {
        "id": 23889,
        "name": "Bad Wörishofen",
        "latitude": "48.00674000",
        "longitude": "10.59666000",
        "country": "Germany",
        "country_id": 82
    },
    {
        "id": 1741,
        "name": "Bad Zell",
        "latitude": "48.34906000",
        "longitude": "14.66945000",
        "country": "Austria",
        "country_id": 15
    },
    {
        "id": 17431,
        "name": "Bad Zurzach",
        "latitude": "47.58764000",
        "longitude": "8.29365000",
        "country": "Switzerland",
        "country_id": 214
    },
    {
        "id": 23890,
        "name": "Bad Zwischenahn",
        "latitude": "53.18333000",
        "longitude": "8.00000000",
        "country": "Germany",
        "country_id": 82
    },
    {
        "id": 23891,
        "name": "Bad Überkingen",
        "latitude": "48.59991000",
        "longitude": "9.79586000",
        "country": "Germany",
        "country_id": 82
    },
    {
        "id": 97750,
        "name": "Bada",
        "latitude": "51.39100000",
        "longitude": "109.86145000",
        "country": "Russia",
        "country_id": 182
    },
    {
        "id": 57785,
        "name": "Bada Barabil",
        "latitude": "22.11186000",
        "longitude": "85.38684000",
        "country": "India",
        "country_id": 101
    },
    {
        "id": 55200,
        "name": "Badacsonytomaj",
        "latitude": "46.80711000",
        "longitude": "17.51385000",
        "country": "Hungary",
        "country_id": 99
    },
    {
        "id": 57786,
        "name": "Badagara",
        "latitude": "11.59776000",
        "longitude": "75.58142000",
        "country": "India",
        "country_id": 101
    },
    {
        "id": 76789,
        "name": "Badagry",
        "latitude": "6.41502000",
        "longitude": "2.88132000",
        "country": "Nigeria",
        "country_id": 161
    },
    {
        "id": 32601,
        "name": "Badajoz",
        "latitude": "38.87789000",
        "longitude": "-6.97061000",
        "country": "Spain",
        "country_id": 207
    },
    {
        "id": 81379,
        "name": "Badak",
        "latitude": "6.84722000",
        "longitude": "124.72056000",
        "country": "Philippines",
        "country_id": 174
    },
    {
        "id": 144616,
        "name": "Badak",
        "latitude": "6.84722222",
        "longitude": "124.72055556",
        "country": "Philippines",
        "country_id": 174
    },
    {
        "id": 135731,
        "name": "Badalasco",
        "latitude": "45.54217000",
        "longitude": "9.55494000",
        "country": "Italy",
        "country_id": 107
    },
    {
        "id": 32602,
        "name": "Badalona",
        "latitude": "41.45004000",
        "longitude": "2.24741000",
        "country": "Spain",
        "country_id": 207
    },
    {
        "id": 135732,
        "name": "Badalucco",
        "latitude": "43.91683000",
        "longitude": "7.84584000",
        "country": "Italy",
        "country_id": 107
    },
    {
        "id": 8051,
        "name": "Badamdar",
        "latitude": "40.34024000",
        "longitude": "49.80450000",
        "country": "Azerbaijan",
        "country_id": 16
    },
    {
        "id": 58105,
        "name": "Badami",
        "latitude": "15.91495000",
        "longitude": "75.67683000",
        "country": "India",
        "country_id": 101
    },
    {
        "id": 149146,
        "name": "Badaogu",
        "latitude": "39.47333333",
        "longitude": "117.32972222",
        "country": "China",
        "country_id": 45
    },
    {
        "id": 105838,
        "name": "Badar",
        "latitude": "54.39948000",
        "longitude": "100.59436000",
        "country": "Ukraine",
        "country_id": 230
    },
    {
        "id": 8455,
        "name": "Badarganj",
        "latitude": "25.67419000",
        "longitude": "89.05377000",
        "country": "Bangladesh",
        "country_id": 19
    },
    {
        "id": 57787,
        "name": "Badarpur",
        "latitude": "24.86852000",
        "longitude": "92.59606000",
        "country": "India",
        "country_id": 101
    },
    {
        "id": 57788,
        "name": "Badarwas",
        "latitude": "24.97516000",
        "longitude": "77.56490000",
        "country": "India",
        "country_id": 101
    },
    {
        "id": 32603,
        "name": "Badarán",
        "latitude": "42.36794000",
        "longitude": "-2.81079000",
        "country": "Spain",
        "country_id": 207
    },
    {
        "id": 23892,
        "name": "Badbergen",
        "latitude": "52.63333000",
        "longitude": "7.98333000",
        "country": "Germany",
        "country_id": 82
    },
    {
        "id": 23893,
        "name": "Baddeckenstedt",
        "latitude": "52.08333000",
        "longitude": "10.23333000",
        "country": "Germany",
        "country_id": 82
    },
    {
        "id": 57789,
        "name": "Baddi",
        "latitude": "30.95783000",
        "longitude": "76.79136000",
        "country": "India",
        "country_id": 101
    },
    {
        "id": 85343,
        "name": "Baddomalhi",
        "latitude": "31.99042000",
        "longitude": "74.66410000",
        "country": "Pakistan",
        "country_id": 167
    },
    {
        "id": 76790,
        "name": "Badeggi",
        "latitude": "9.05630000",
        "longitude": "6.14300000",
        "country": "Nigeria",
        "country_id": 161
    },
    {
        "id": 23894,
        "name": "Badem",
        "latitude": "50.00000000",
        "longitude": "6.61667000",
        "country": "Germany",
        "country_id": 82
    },
    {
        "id": 1742,
        "name": "Baden",
        "latitude": "48.00543000",
        "longitude": "16.23264000",
        "country": "Austria",
        "country_id": 15
    },
    {
        "id": 39703,
        "name": "Baden",
        "latitude": "47.61734000",
        "longitude": "-2.91987000",
        "country": "France",
        "country_id": 75
    },
    {
        "id": 17432,
        "name": "Baden",
        "latitude": "47.47333000",
        "longitude": "8.30592000",
        "country": "Switzerland",
        "country_id": 214
    },
    {
        "id": 111722,
        "name": "Baden",
        "latitude": "38.65928000",
        "longitude": "-76.77775000",
        "country": "United States",
        "country_id": 233
    },
    {
        "id": 111723,
        "name": "Baden",
        "latitude": "40.63507000",
        "longitude": "-80.22812000",
        "country": "United States",
        "country_id": 233
    },
    {
        "id": 23895,
        "name": "Baden-Baden",
        "latitude": "48.76060000",
        "longitude": "8.23975000",
        "country": "Germany",
        "country_id": 82
    },
    {
        "id": 23896,
        "name": "Badenhausen",
        "latitude": "51.76996000",
        "longitude": "10.20493000",
        "country": "Germany",
        "country_id": 82
    },
    {
        "id": 23897,
        "name": "Badenweiler",
        "latitude": "47.80223000",
        "longitude": "7.67236000",
        "country": "Germany",
        "country_id": 82
    },
    {
        "id": 1743,
        "name": "Badersdorf",
        "latitude": "47.20000000",
        "longitude": "16.36667000",
        "country": "Austria",
        "country_id": 15
    },
    {
        "id": 135733,
        "name": "Badesi",
        "latitude": "40.96460000",
        "longitude": "8.88235000",
        "country": "Italy",
        "country_id": 107
    },
    {
        "id": 57790,
        "name": "Badgam",
        "latitude": "33.89001000",
        "longitude": "74.66297000",
        "country": "India",
        "country_id": 101
    },
    {
        "id": 111724,
        "name": "Badger",
        "latitude": "64.80000000",
        "longitude": "-147.53333000",
        "country": "United States",
        "country_id": 233
    },
    {
        "id": 4061,
        "name": "Badger Creek",
        "latitude": "-37.70000000",
        "longitude": "145.51667000",
        "country": "Australia",
        "country_id": 14
    },
    {
        "id": 149550,
        "name": "Badgingarra",
        "latitude": "-30.44367330",
        "longitude": "115.47471450",
        "country": "Australia",
        "country_id": 14
    },
    {
        "id": 57791,
        "name": "Badhni Kalan",
        "latitude": "30.68130000",
        "longitude": "75.29087000",
        "country": "India",
        "country_id": 101
    },
    {
        "id": 149839,
        "name": "Badhoevedorp",
        "latitude": "52.33810000",
        "longitude": "4.78030000",
        "country": "Netherlands",
        "country_id": 156
    },
    {
        "id": 135734,
        "name": "Badia",
        "latitude": "46.60816000",
        "longitude": "11.89630000",
        "country": "Italy",
        "country_id": 107
    },
    {
        "id": 135739,
        "name": "Badia al Pino",
        "latitude": "43.40424000",
        "longitude": "11.77228000",
        "country": "Italy",
        "country_id": 107
    },
    {
        "id": 135735,
        "name": "Badia Calavena",
        "latitude": "45.56463000",
        "longitude": "11.15197000",
        "country": "Italy",
        "country_id": 107
    },
    {
        "id": 151629,
        "name": "Badia del Vallès",
        "latitude": "0.00000000",
        "longitude": "0.00000000",
        "country": "Spain",
        "country_id": 207
    },
    {
        "id": 135736,
        "name": "Badia Pavese",
        "latitude": "45.12087000",
        "longitude": "9.46866000",
        "country": "Italy",
        "country_id": 107
    },
    {
        "id": 135737,
        "name": "Badia Polesine",
        "latitude": "45.09508000",
        "longitude": "11.49443000",
        "country": "Italy",
        "country_id": 107
    },
    {
        "id": 135738,
        "name": "Badia Tedalda",
        "latitude": "43.70887000",
        "longitude": "12.18425000",
        "country": "Italy",
        "country_id": 107
    },
    {
        "id": 81380,
        "name": "Badian",
        "latitude": "13.03167000",
        "longitude": "123.30778000",
        "country": "Philippines",
        "country_id": 174
    },
    {
        "id": 81381,
        "name": "Badian",
        "latitude": "9.86472000",
        "longitude": "123.39639000",
        "country": "Philippines",
        "country_id": 174
    },
    {
        "id": 81382,
        "name": "Badiangan",
        "latitude": "11.00573000",
        "longitude": "122.50051000",
        "country": "Philippines",
        "country_id": 174
    },
    {
        "id": 135740,
        "name": "Badile",
        "latitude": "45.35061000",
        "longitude": "9.12705000",
        "country": "Italy",
        "country_id": 107
    },
    {
        "id": 85344,
        "name": "Badin",
        "latitude": "24.65600000",
        "longitude": "68.83700000",
        "country": "Pakistan",
        "country_id": 167
    },
    {
        "id": 111725,
        "name": "Badin",
        "latitude": "35.40597000",
        "longitude": "-80.11672000",
        "country": "United States",
        "country_id": 233
    },
    {
        "id": 68495,
        "name": "Badiraguato",
        "latitude": "25.36525000",
        "longitude": "-107.55083000",
        "country": "Mexico",
        "country_id": 142
    },
    {
        "id": 141863,
        "name": "Badkulla",
        "latitude": "23.28000000",
        "longitude": "88.53000000",
        "country": "India",
        "country_id": 101
    },
    {
        "id": 81383,
        "name": "Badlan",
        "latitude": "11.14140000",
        "longitude": "122.52000000",
        "country": "Philippines",
        "country_id": 174
    },
    {
        "id": 57792,
        "name": "Badlapur",
        "latitude": "19.15516000",
        "longitude": "73.26553000",
        "country": "India",
        "country_id": 101
    },
    {
        "id": 147690,
        "name": "Badnapur",
        "latitude": "19.86666667",
        "longitude": "75.73333333",
        "country": "India",
        "country_id": 101
    },
    {
        "id": 57793,
        "name": "Badnawar",
        "latitude": "23.02181000",
        "longitude": "75.23268000",
        "country": "India",
        "country_id": 101
    },
    {
        "id": 147691,
        "name": "Badnera",
        "latitude": "20.85463056",
        "longitude": "77.72931111",
        "country": "India",
        "country_id": 101
    },
    {
        "id": 145811,
        "name": "Badoc",
        "latitude": "17.92650000",
        "longitude": "120.47640000",
        "country": "Philippines",
        "country_id": 174
    },
    {
        "id": 81384,
        "name": "Badoc",
        "latitude": "17.92650000",
        "longitude": "120.47640000",
        "country": "Philippines",
        "country_id": 174
    },
    {
        "id": 135741,
        "name": "Badoere",
        "latitude": "45.63420000",
        "longitude": "12.08518000",
        "country": "Italy",
        "country_id": 107
    },
    {
        "id": 135742,
        "name": "Badolato",
        "latitude": "38.56868000",
        "longitude": "16.52461000",
        "country": "Italy",
        "country_id": 107
    },
    {
        "id": 135743,
        "name": "Badolato Marina",
        "latitude": "38.57613000",
        "longitude": "16.56527000",
        "country": "Italy",
        "country_id": 107
    },
    {
        "id": 32604,
        "name": "Badolatosa",
        "latitude": "37.30785000",
        "longitude": "-4.67296000",
        "country": "Spain",
        "country_id": 207
    },
    {
        "id": 39704,
        "name": "Badonviller",
        "latitude": "48.50116000",
        "longitude": "6.89218000",
        "country": "France",
        "country_id": 75
    },
    {
        "id": 105160,
        "name": "Badou",
        "latitude": "7.58333000",
        "longitude": "0.60000000",
        "country": "Togo",
        "country_id": 220
    },
    {
        "id": 97149,
        "name": "Badovinci",
        "latitude": "44.78534000",
        "longitude": "19.37146000",
        "country": "Serbia",
        "country_id": 196
    },
    {
        "id": 149582,
        "name": "Badr",
        "latitude": "30.13600000",
        "longitude": "31.71500000",
        "country": "Egypt",
        "country_id": 65
    },
    {
        "id": 134574,
        "name": "Badreh",
        "latitude": "33.00000000",
        "longitude": "47.25000000",
        "country": "Iran",
        "country_id": 103
    },
    {
        "id": 150285,
        "name": "Badroud",
        "latitude": "33.68939670",
        "longitude": "51.99780820",
        "country": "Iran",
        "country_id": 103
    },
    {
        "id": 48333,
        "name": "Badsey",
        "latitude": "52.08819000",
        "longitude": "-1.89925000",
        "country": "United Kingdom",
        "country_id": 232
    },
    {
        "id": 48334,
        "name": "Badsworth",
        "latitude": "53.62876000",
        "longitude": "-1.30128000",
        "country": "United Kingdom",
        "country_id": 232
    },
    {
        "id": 19296,
        "name": "Badu",
        "latitude": "26.81028000",
        "longitude": "119.56417000",
        "country": "China",
        "country_id": 45
    },
    {
        "id": 150335,
        "name": "Baduleh",
        "latitude": "28.39721360",
        "longitude": "51.49332760",
        "country": "Iran",
        "country_id": 103
    },
    {
        "id": 32605,
        "name": "Badules",
        "latitude": "41.13901000",
        "longitude": "-1.25366000",
        "country": "Spain",
        "country_id": 207
    },
    {
        "id": 66453,
        "name": "Badulla",
        "latitude": "6.98020000",
        "longitude": "81.05770000",
        "country": "Sri Lanka",
        "country_id": 208
    },
    {
        "id": 66454,
        "name": "Badulla District",
        "latitude": "6.98472000",
        "longitude": "81.05639000",
        "country": "Sri Lanka",
        "country_id": 208
    },
    {
        "id": 141864,
        "name": "Baduria",
        "latitude": "22.74000000",
        "longitude": "88.79000000",
        "country": "India",
        "country_id": 101
    },
    {
        "id": 57794,
        "name": "Badvel",
        "latitude": "14.74510000",
        "longitude": "79.06288000",
        "country": "India",
        "country_id": 101
    },
    {
        "id": 10471,
        "name": "Bady Bassitt",
        "latitude": "-20.91806000",
        "longitude": "-49.44528000",
        "country": "Brazil",
        "country_id": 31
    },
    {
        "id": 56186,
        "name": "Baekrajan",
        "latitude": "-6.76740000",
        "longitude": "110.85410000",
        "country": "Indonesia",
        "country_id": 102
    },
    {
        "id": 8640,
        "name": "Baelen",
        "latitude": "50.63131000",
        "longitude": "5.97433000",
        "country": "Belgium",
        "country_id": 22
    },
    {
        "id": 32606,
        "name": "Baells",
        "latitude": "41.95325000",
        "longitude": "0.45956000",
        "country": "Spain",
        "country_id": 207
    },
    {
        "id": 32607,
        "name": "Baena",
        "latitude": "37.61670000",
        "longitude": "-4.32245000",
        "country": "Spain",
        "country_id": 207
    },
    {
        "id": 10472,
        "name": "Baependi",
        "latitude": "-21.97623000",
        "longitude": "-44.85558000",
        "country": "Brazil",
        "country_id": 31
    },
    {
        "id": 23898,
        "name": "Baesweiler",
        "latitude": "50.90964000",
        "longitude": "6.18874000",
        "country": "Germany",
        "country_id": 82
    },
    {
        "id": 32608,
        "name": "Baeza",
        "latitude": "37.99384000",
        "longitude": "-3.47103000",
        "country": "Spain",
        "country_id": 207
    },
    {
        "id": 19138,
        "name": "Bafang",
        "latitude": "5.15705000",
        "longitude": "10.17710000",
        "country": "Cameroon",
        "country_id": 38
    },
    {
        "id": 53807,
        "name": "Bafatá",
        "latitude": "12.16583000",
        "longitude": "-14.66167000",
        "country": "Guinea-Bissau",
        "country_id": 93
    },
    {
        "id": 85345,
        "name": "Baffa",
        "latitude": "34.43770000",
        "longitude": "73.22368000",
        "country": "Pakistan",
        "country_id": 167
    },
    {
        "id": 151020,
        "name": "Bafgh",
        "latitude": "31.61251830",
        "longitude": "55.38023410",
        "country": "Iran",
        "country_id": 103
    },
    {
        "id": 19139,
        "name": "Bafia",
        "latitude": "4.75000000",
        "longitude": "11.23333000",
        "country": "Cameroon",
        "country_id": 38
    },
    {
        "id": 105161,
        "name": "Bafilo",
        "latitude": "9.35000000",
        "longitude": "1.26667000",
        "country": "Togo",
        "country_id": 220
    },
    {
        "id": 18873,
        "name": "Bafing",
        "latitude": "8.40611000",
        "longitude": "-7.58048000",
        "country": "Cote D'Ivoire (Ivory Coast)",
        "country_id": 54
    },
    {
        "id": 77370,
        "name": "Baflo",
        "latitude": "53.36250000",
        "longitude": "6.51389000",
        "country": "Netherlands",
        "country_id": 156
    },
    {
        "id": 67586,
        "name": "Bafoulabé",
        "latitude": "13.80650000",
        "longitude": "-10.83210000",
        "country": "Mali",
        "country_id": 134
    },
    {
        "id": 19140,
        "name": "Bafoussam",
        "latitude": "5.47775000",
        "longitude": "10.41759000",
        "country": "Cameroon",
        "country_id": 38
    },
    {
        "id": 134597,
        "name": "Bafq",
        "latitude": "31.60350000",
        "longitude": "55.40249000",
        "country": "Iran",
        "country_id": 103
    },
    {
        "id": 107257,
        "name": "Bafra",
        "latitude": "41.46082000",
        "longitude": "35.84435000",
        "country": "Turkey",
        "country_id": 225
    },
    {
        "id": 151026,
        "name": "Bafruiyeh",
        "latitude": "32.26992120",
        "longitude": "53.98829480",
        "country": "Iran",
        "country_id": 103
    },
    {
        "id": 150278,
        "name": "Bafrān",
        "latitude": "32.83938320",
        "longitude": "53.13662050",
        "country": "Iran",
        "country_id": 103
    },
    {
        "id": 134598,
        "name": "Baft",
        "latitude": "29.23310000",
        "longitude": "56.60220000",
        "country": "Iran",
        "country_id": 103
    },
    {
        "id": 55201,
        "name": "Bag",
        "latitude": "47.63333000",
        "longitude": "19.48333000",
        "country": "Hungary",
        "country_id": 99
    },
    {
        "id": 57795,
        "name": "Baga",
        "latitude": "15.56517000",
        "longitude": "73.75517000",
        "country": "India",
        "country_id": 101
    },
    {
        "id": 145119,
        "name": "Bagabag",
        "latitude": "16.60443056",
        "longitude": "121.25209444",
        "country": "Philippines",
        "country_id": 174
    },
    {
        "id": 145360,
        "name": "Bagac",
        "latitude": "14.58333000",
        "longitude": "120.41667000",
        "country": "Philippines",
        "country_id": 174
    },
    {
        "id": 81385,
        "name": "Bagac",
        "latitude": "14.59620000",
        "longitude": "120.39280000",
        "country": "Philippines",
        "country_id": 174
    },
    {
        "id": 81386,
        "name": "Bagacay",
        "latitude": "9.86640000",
        "longitude": "123.91800000",
        "country": "Philippines",
        "country_id": 174
    },
    {
        "id": 81387,
        "name": "Bagacay",
        "latitude": "12.98210000",
        "longitude": "124.14150000",
        "country": "Philippines",
        "country_id": 174
    },
    {
        "id": 21648,
        "name": "Bagaces",
        "latitude": "10.50000000",
        "longitude": "-85.25000000",
        "country": "Costa Rica",
        "country_id": 53
    },
    {
        "id": 20559,
        "name": "Bagadó",
        "latitude": "5.41164000",
        "longitude": "-76.41520000",
        "country": "Colombia",
        "country_id": 48
    },
    {
        "id": 57796,
        "name": "Bagaha",
        "latitude": "27.09918000",
        "longitude": "84.09003000",
        "country": "India",
        "country_id": 101
    },
    {
        "id": 81388,
        "name": "Bagahanlad",
        "latitude": "12.57970000",
        "longitude": "123.66880000",
        "country": "Philippines",
        "country_id": 174
    },
    {
        "id": 81389,
        "name": "Bagakay",
        "latitude": "8.14540000",
        "longitude": "123.81570000",
        "country": "Philippines",
        "country_id": 174
    },
    {
        "id": 135744,
        "name": "Bagaladi",
        "latitude": "38.02560000",
        "longitude": "15.82152000",
        "country": "Italy",
        "country_id": 107
    },
    {
        "id": 81390,
        "name": "Bagalangit",
        "latitude": "13.71041000",
        "longitude": "120.88467000",
        "country": "Philippines",
        "country_id": 174
    },
    {
        "id": 57797,
        "name": "Bagalkot",
        "latitude": "16.18000000",
        "longitude": "75.69000000",
        "country": "India",
        "country_id": 101
    },
    {
        "id": 81391,
        "name": "Bagamanoc",
        "latitude": "13.94040000",
        "longitude": "124.28962000",
        "country": "Philippines",
        "country_id": 174
    },
    {
        "id": 109044,
        "name": "Bagamoyo",
        "latitude": "-6.44222000",
        "longitude": "38.90422000",
        "country": "Tanzania",
        "country_id": 218
    },
    {
        "id": 55202,
        "name": "Bagamér",
        "latitude": "47.44882000",
        "longitude": "21.98900000",
        "country": "Hungary",
        "country_id": 99
    },
    {
        "id": 144617,
        "name": "Bagan",
        "latitude": "6.92555556",
        "longitude": "124.42027778",
        "country": "Philippines",
        "country_id": 174
    },
    {
        "id": 81392,
        "name": "Bagan",
        "latitude": "6.92556000",
        "longitude": "124.42028000",
        "country": "Philippines",
        "country_id": 174
    },
    {
        "id": 97751,
        "name": "Bagan",
        "latitude": "54.10014000",
        "longitude": "77.66462000",
        "country": "Russia",
        "country_id": 182
    },
    {
        "id": 76413,
        "name": "Bagan Pulau Ketam",
        "latitude": "3.01667000",
        "longitude": "101.26667000",
        "country": "Malaysia",
        "country_id": 132
    },
    {
        "id": 76414,
        "name": "Bagan Serai",
        "latitude": "5.01080000",
        "longitude": "100.54101000",
        "country": "Malaysia",
        "country_id": 132
    },
    {
        "id": 81393,
        "name": "Baganga",
        "latitude": "7.57389000",
        "longitude": "126.56000000",
        "country": "Philippines",
        "country_id": 174
    },
    {
        "id": 144884,
        "name": "Baganga",
        "latitude": "7.57388889",
        "longitude": "126.56000000",
        "country": "Philippines",
        "country_id": 174
    },
    {
        "id": 144119,
        "name": "Baganga",
        "latitude": "7.57388889",
        "longitude": "126.56000000",
        "country": "Philippines",
        "country_id": 174
    },
    {
        "id": 76628,
        "name": "Bagani",
        "latitude": "-18.11065000",
        "longitude": "21.61645000",
        "country": "Namibia",
        "country_id": 152
    },
    {
        "id": 135745,
        "name": "Baganzola",
        "latitude": "44.85513000",
        "longitude": "10.30706000",
        "country": "Italy",
        "country_id": 107
    },
    {
        "id": 57798,
        "name": "Bagar",
        "latitude": "28.18784000",
        "longitude": "75.50012000",
        "country": "India",
        "country_id": 101
    },
    {
        "id": 39705,
        "name": "Bagard",
        "latitude": "44.07126000",
        "longitude": "4.05225000",
        "country": "France",
        "country_id": 75
    },
    {
        "id": 85346,
        "name": "Bagarji",
        "latitude": "27.75431000",
        "longitude": "68.75866000",
        "country": "Pakistan",
        "country_id": 167
    },
    {
        "id": 142125,
        "name": "Bagasara",
        "latitude": "21.48333333",
        "longitude": "70.95000000",
        "country": "India",
        "country_id": 101
    },
    {
        "id": 57799,
        "name": "Bagasra",
        "latitude": "21.48719000",
        "longitude": "70.95516000",
        "country": "India",
        "country_id": 101
    },
    {
        "id": 65974,
        "name": "Bagatelle",
        "latitude": "13.99797000",
        "longitude": "-60.98156000",
        "country": "Saint Lucia",
        "country_id": 186
    },
    {
        "id": 81394,
        "name": "Bagay",
        "latitude": "11.19640000",
        "longitude": "124.03500000",
        "country": "Philippines",
        "country_id": 174
    },
    {
        "id": 97752,
        "name": "Bagayevskaya",
        "latitude": "47.32411000",
        "longitude": "40.38791000",
        "country": "Russia",
        "country_id": 182
    },
    {
        "id": 4062,
        "name": "Bagdad",
        "latitude": "-42.62968000",
        "longitude": "147.22339000",
        "country": "Australia",
        "country_id": 14
    },
    {
        "id": 111726,
        "name": "Bagdad",
        "latitude": "30.59880000",
        "longitude": "-87.03223000",
        "country": "United States",
        "country_id": 233
    },
    {
        "id": 111727,
        "name": "Bagdad",
        "latitude": "34.58113000",
        "longitude": "-113.20464000",
        "country": "United States",
        "country_id": 233
    },
    {
        "id": 97753,
        "name": "Bagdarin",
        "latitude": "54.43333000",
        "longitude": "113.60000000",
        "country": "Russia",
        "country_id": 182
    },
    {
        "id": 141865,
        "name": "Bagdogra",
        "latitude": "26.69980400",
        "longitude": "88.31939200",
        "country": "India",
        "country_id": 101
    },
    {
        "id": 57087,
        "name": "Bagenalstown",
        "latitude": "52.70031000",
        "longitude": "-6.96181000",
        "country": "Ireland",
        "country_id": 105
    },
    {
        "id": 58107,
        "name": "Bagepalli",
        "latitude": "13.78338000",
        "longitude": "77.79667000",
        "country": "India",
        "country_id": 101
    },
    {
        "id": 8456,
        "name": "Bagerhat",
        "latitude": "22.40000000",
        "longitude": "89.75000000",
        "country": "Bangladesh",
        "country_id": 19
    },
    {
        "id": 39706,
        "name": "Bages",
        "latitude": "42.60588000",
        "longitude": "2.89350000",
        "country": "France",
        "country_id": 75
    },
    {
        "id": 57800,
        "name": "Bageshwar",
        "latitude": "29.97315000",
        "longitude": "79.83224000",
        "country": "India",
        "country_id": 101
    },
    {
        "id": 147692,
        "name": "Bagewadi",
        "latitude": "16.29000000",
        "longitude": "74.60000000",
        "country": "India",
        "country_id": 101
    },
    {
        "id": 145120,
        "name": "Baggabag B",
        "latitude": "16.50583333",
        "longitude": "121.19027778",
        "country": "Philippines",
        "country_id": 174
    },
    {
        "id": 81395,
        "name": "Baggabag B",
        "latitude": "16.50588000",
        "longitude": "121.19014000",
        "country": "Philippines",
        "country_id": 174
    },
    {
        "id": 145121,
        "name": "Baggao",
        "latitude": "17.88935278",
        "longitude": "121.87092222",
        "country": "Philippines",
        "country_id": 174
    },
    {
        "id": 135746,
        "name": "Baggiovara",
        "latitude": "44.60416000",
        "longitude": "10.86256000",
        "country": "Italy",
        "country_id": 107
    },
    {
        "id": 58106,
        "name": "Bagh",
        "latitude": "22.35905000",
        "longitude": "74.79052000",
        "country": "India",
        "country_id": 101
    },
    {
        "id": 134599,
        "name": "Bagh Malek",
        "latitude": "31.50000000",
        "longitude": "49.91667000",
        "country": "Iran",
        "country_id": 103
    },
    {
        "id": 58109,
        "name": "Bagha Purana",
        "latitude": "30.68809000",
        "longitude": "75.09838000",
        "country": "India",
        "country_id": 101
    },
    {
        "id": 150263,
        "name": "Baghbahadoran",
        "latitude": "32.37872850",
        "longitude": "51.18191240",
        "country": "Iran",
        "country_id": 103
    },
    {
        "id": 134504,
        "name": "Baghdad",
        "latitude": "33.34058000",
        "longitude": "44.40088000",
        "country": "Iraq",
        "country_id": 104
    },