[
    {
        "id": 39223,
        "name": "U Municipality",
        "latitude": "6.94972000",
        "longitude": "158.27361000",
        "country": "Micronesia",
        "country_id": 143
    },
    {
        "id": 79766,
        "name": "Uaboe",
        "latitude": "-0.51393000",
        "longitude": "166.92384000",
        "country": "Nauru",
        "country_id": 153
    },
    {
        "id": 145776,
        "name": "Uacon",
        "latitude": "15.67861111",
        "longitude": "119.94027778",
        "country": "Philippines",
        "country_id": 174
    },
    {
        "id": 85239,
        "name": "Uacon",
        "latitude": "15.67870000",
        "longitude": "119.94030000",
        "country": "Philippines",
        "country_id": 174
    },
    {
        "id": 635,
        "name": "Uacu Cungo",
        "latitude": "-11.35669000",
        "longitude": "15.11719000",
        "country": "Angola",
        "country_id": 7
    },
    {
        "id": 85240,
        "name": "Ualog",
        "latitude": "10.57396000",
        "longitude": "123.39330000",
        "country": "Philippines",
        "country_id": 174
    },
    {
        "id": 15423,
        "name": "Uarini",
        "latitude": "-3.14736000",
        "longitude": "-65.42036000",
        "country": "Brazil",
        "country_id": 31
    },
    {
        "id": 106875,
        "name": "Uatocarabau",
        "latitude": "-8.75658000",
        "longitude": "126.68060000",
        "country": "Timor-Leste",
        "country_id": 63
    },
    {
        "id": 106876,
        "name": "Uatolari",
        "latitude": "-8.76277000",
        "longitude": "126.57353000",
        "country": "Timor-Leste",
        "country_id": 63
    },
    {
        "id": 15424,
        "name": "Uauá",
        "latitude": "-9.84143000",
        "longitude": "-39.23025000",
        "country": "Brazil",
        "country_id": 31
    },
    {
        "id": 75858,
        "name": "Uayalceh de Peón",
        "latitude": "20.69345000",
        "longitude": "-89.59483000",
        "country": "Mexico",
        "country_id": 142
    },
    {
        "id": 75859,
        "name": "Uayma",
        "latitude": "20.71781000",
        "longitude": "-88.31693000",
        "country": "Mexico",
        "country_id": 142
    },
    {
        "id": 77117,
        "name": "Uba",
        "latitude": "10.45509000",
        "longitude": "13.22233000",
        "country": "Nigeria",
        "country_id": 161
    },
    {
        "id": 78805,
        "name": "Ubachsberg",
        "latitude": "50.85333000",
        "longitude": "5.94861000",
        "country": "Netherlands",
        "country_id": 156
    },
    {
        "id": 15425,
        "name": "Ubaitaba",
        "latitude": "-14.31250000",
        "longitude": "-39.32333000",
        "country": "Brazil",
        "country_id": 31
    },
    {
        "id": 15426,
        "name": "Ubajara",
        "latitude": "-3.84020000",
        "longitude": "-40.93422000",
        "country": "Brazil",
        "country_id": 31
    },
    {
        "id": 1518,
        "name": "Ubajay",
        "latitude": "-31.79358000",
        "longitude": "-58.31350000",
        "country": "Argentina",
        "country_id": 11
    },
    {
        "id": 21565,
        "name": "Ubalá",
        "latitude": "4.74778000",
        "longitude": "-72.53694000",
        "country": "Colombia",
        "country_id": 48
    },
    {
        "id": 15427,
        "name": "Ubaporanga",
        "latitude": "-19.66187000",
        "longitude": "-42.05903000",
        "country": "Brazil",
        "country_id": 31
    },
    {
        "id": 21566,
        "name": "Ubaque",
        "latitude": "4.48667000",
        "longitude": "-73.93748000",
        "country": "Colombia",
        "country_id": 48
    },
    {
        "id": 15428,
        "name": "Ubarana",
        "latitude": "-21.22036000",
        "longitude": "-49.72981000",
        "country": "Brazil",
        "country_id": 31
    },
    {
        "id": 67034,
        "name": "Ubari",
        "latitude": "26.59034000",
        "longitude": "12.77511000",
        "country": "Libya",
        "country_id": 124
    },
    {
        "id": 15429,
        "name": "Ubatuba",
        "latitude": "-23.43389000",
        "longitude": "-45.07111000",
        "country": "Brazil",
        "country_id": 31
    },
    {
        "id": 15430,
        "name": "Ubatã",
        "latitude": "-14.05629000",
        "longitude": "-39.52278000",
        "country": "Brazil",
        "country_id": 31
    },
    {
        "id": 85756,
        "name": "Ubauro",
        "latitude": "28.16429000",
        "longitude": "69.73114000",
        "country": "Pakistan",
        "country_id": 167
    },
    {
        "id": 85241,
        "name": "Ubay",
        "latitude": "10.05600000",
        "longitude": "124.47294000",
        "country": "Philippines",
        "country_id": 174
    },
    {
        "id": 15431,
        "name": "Ubaí",
        "latitude": "-16.38337000",
        "longitude": "-44.85525000",
        "country": "Brazil",
        "country_id": 31
    },
    {
        "id": 15432,
        "name": "Ubaíra",
        "latitude": "-13.28700000",
        "longitude": "-39.69347000",
        "country": "Brazil",
        "country_id": 31
    },
    {
        "id": 64576,
        "name": "Ube",
        "latitude": "33.94306000",
        "longitude": "131.25111000",
        "country": "Japan",
        "country_id": 109
    },
    {
        "id": 15433,
        "name": "Uberaba",
        "latitude": "-19.54826000",
        "longitude": "-47.94144000",
        "country": "Brazil",
        "country_id": 31
    },
    {
        "id": 47419,
        "name": "Uberach",
        "latitude": "48.84990000",
        "longitude": "7.62934000",
        "country": "France",
        "country_id": 75
    },
    {
        "id": 15434,
        "name": "Uberlândia",
        "latitude": "-19.02333000",
        "longitude": "-48.33477000",
        "country": "Brazil",
        "country_id": 31
    },
    {
        "id": 77118,
        "name": "Ubiaja",
        "latitude": "6.65581000",
        "longitude": "6.38494000",
        "country": "Nigeria",
        "country_id": 161
    },
    {
        "id": 61583,
        "name": "Ubiale",
        "latitude": "45.78350000",
        "longitude": "9.61650000",
        "country": "Italy",
        "country_id": 107
    },
    {
        "id": 61584,
        "name": "Ubiale Clanezzo",
        "latitude": "45.78368000",
        "longitude": "9.61935000",
        "country": "Italy",
        "country_id": 107
    },
    {
        "id": 151306,
        "name": "Ubide",
        "latitude": "0.00000000",
        "longitude": "0.00000000",
        "country": "Spain",
        "country_id": 207
    },
    {
        "id": 75860,
        "name": "Ubilio García",
        "latitude": "17.08405000",
        "longitude": "-91.47241000",
        "country": "Mexico",
        "country_id": 142
    },
    {
        "id": 102012,
        "name": "Ubinskoye",
        "latitude": "55.30675000",
        "longitude": "79.68016000",
        "country": "Russia",
        "country_id": 182
    },
    {
        "id": 15435,
        "name": "Ubirajara",
        "latitude": "-22.55131000",
        "longitude": "-49.66278000",
        "country": "Brazil",
        "country_id": 31
    },
    {
        "id": 15436,
        "name": "Ubiratã",
        "latitude": "-24.50395000",
        "longitude": "-53.01934000",
        "country": "Brazil",
        "country_id": 31
    },
    {
        "id": 15437,
        "name": "Ubiretama",
        "latitude": "-28.05186000",
        "longitude": "-54.66252000",
        "country": "Brazil",
        "country_id": 31
    },
    {
        "id": 61585,
        "name": "Uboldo",
        "latitude": "45.61527000",
        "longitude": "9.00394000",
        "country": "Italy",
        "country_id": 107
    },
    {
        "id": 106737,
        "name": "Ubon Ratchathani",
        "latitude": "15.23844000",
        "longitude": "104.84866000",
        "country": "Thailand",
        "country_id": 219
    },
    {
        "id": 37670,
        "name": "Ubrique",
        "latitude": "36.67777000",
        "longitude": "-5.44600000",
        "country": "Spain",
        "country_id": 207
    },
    {
        "id": 29712,
        "name": "Ubstadt-Weiher",
        "latitude": "49.16296000",
        "longitude": "8.63165000",
        "country": "Germany",
        "country_id": 82
    },
    {
        "id": 57046,
        "name": "Ubud",
        "latitude": "-8.50980000",
        "longitude": "115.26540000",
        "country": "Indonesia",
        "country_id": 102
    },
    {
        "id": 15438,
        "name": "Ubá",
        "latitude": "-21.12000000",
        "longitude": "-42.94278000",
        "country": "Brazil",
        "country_id": 31
    },
    {
        "id": 1519,
        "name": "Ucacha",
        "latitude": "-33.03203000",
        "longitude": "-63.50666000",
        "country": "Argentina",
        "country_id": 11
    },
    {
        "id": 153111,
        "name": "Ucar",
        "latitude": "0.00000000",
        "longitude": "0.00000000",
        "country": "Spain",
        "country_id": 207
    },
    {
        "id": 75861,
        "name": "Ucareo",
        "latitude": "19.89850000",
        "longitude": "-100.68595000",
        "country": "Mexico",
        "country_id": 142
    },
    {
        "id": 96632,
        "name": "Ucea de Jos",
        "latitude": "45.78410000",
        "longitude": "24.67097000",
        "country": "Romania",
        "country_id": 181
    },
    {
        "id": 96633,
        "name": "Ucea de Sus",
        "latitude": "45.75000000",
        "longitude": "24.68333000",
        "country": "Romania",
        "country_id": 181
    },
    {
        "id": 37671,
        "name": "Uceda",
        "latitude": "40.83944000",
        "longitude": "-3.46040000",
        "country": "Spain",
        "country_id": 207
    },
    {
        "id": 37672,
        "name": "Ucero",
        "latitude": "41.71685000",
        "longitude": "-3.05154000",
        "country": "Spain",
        "country_id": 207
    },
    {
        "id": 142107,
        "name": "Uchalan",
        "latitude": "23.03330000",
        "longitude": "87.78330000",
        "country": "India",
        "country_id": 101
    },
    {
        "id": 102013,
        "name": "Uchaly",
        "latitude": "54.35806000",
        "longitude": "59.43611000",
        "country": "Russia",
        "country_id": 182
    },
    {
        "id": 47420,
        "name": "Uchaud",
        "latitude": "43.75857000",
        "longitude": "4.26843000",
        "country": "France",
        "country_id": 75
    },
    {
        "id": 47421,
        "name": "Uchaux",
        "latitude": "44.21667000",
        "longitude": "4.80000000",
        "country": "France",
        "country_id": 75
    },
    {
        "id": 81002,
        "name": "Uchiza",
        "latitude": "-8.45917000",
        "longitude": "-76.46333000",
        "country": "Peru",
        "country_id": 173
    },
    {
        "id": 102014,
        "name": "Uchkeken",
        "latitude": "43.93778000",
        "longitude": "42.51167000",
        "country": "Russia",
        "country_id": 182
    },
    {
        "id": 102015,
        "name": "Uchkent",
        "latitude": "43.11427000",
        "longitude": "47.08255000",
        "country": "Russia",
        "country_id": 182
    },
    {
        "id": 102016,
        "name": "Uchkulan",
        "latitude": "43.45705000",
        "longitude": "42.09643000",
        "country": "Russia",
        "country_id": 182
    },
    {
        "id": 15439,
        "name": "Uchoa",
        "latitude": "-20.91850000",
        "longitude": "-49.13654000",
        "country": "Brazil",
        "country_id": 31
    },
    {
        "id": 130011,
        "name": "Uchqŭrghon Shahri",
        "latitude": "41.11371000",
        "longitude": "72.07915000",
        "country": "Uzbekistan",
        "country_id": 236
    },
    {
        "id": 29713,
        "name": "Uchte",
        "latitude": "52.49975000",
        "longitude": "8.90928000",
        "country": "Germany",
        "country_id": 82
    },
    {
        "id": 29714,
        "name": "Uchtspringe",
        "latitude": "52.54011000",
        "longitude": "11.59959000",
        "country": "Germany",
        "country_id": 82
    },
    {
        "id": 75862,
        "name": "Uci",
        "latitude": "21.12682000",
        "longitude": "-89.26827000",
        "country": "Mexico",
        "country_id": 142
    },
    {
        "id": 88446,
        "name": "Uciechów",
        "latitude": "50.75487000",
        "longitude": "16.68175000",
        "country": "Poland",
        "country_id": 176
    },
    {
        "id": 47422,
        "name": "Uckange",
        "latitude": "49.30304000",
        "longitude": "6.14920000",
        "country": "France",
        "country_id": 75
    },
    {
        "id": 51689,
        "name": "Uckfield",
        "latitude": "50.96948000",
        "longitude": "0.09589000",
        "country": "United Kingdom",
        "country_id": 232
    },
    {
        "id": 17133,
        "name": "Ucluelet",
        "latitude": "48.94153000",
        "longitude": "-125.54635000",
        "country": "Canada",
        "country_id": 39
    },
    {
        "id": 37673,
        "name": "Uclés",
        "latitude": "39.97938000",
        "longitude": "-2.86143000",
        "country": "Spain",
        "country_id": 207
    },
    {
        "id": 127953,
        "name": "Ucon",
        "latitude": "43.59630000",
        "longitude": "-111.96386000",
        "country": "United States",
        "country_id": 233
    },
    {
        "id": 61586,
        "name": "Ucria",
        "latitude": "38.04624000",
        "longitude": "14.88087000",
        "country": "Italy",
        "country_id": 107
    },
    {
        "id": 75863,
        "name": "Ucum",
        "latitude": "18.50258000",
        "longitude": "-88.51836000",
        "country": "Mexico",
        "country_id": 142
    },
    {
        "id": 75864,
        "name": "Ucú",
        "latitude": "21.03135000",
        "longitude": "-89.74466000",
        "country": "Mexico",
        "country_id": 142
    },
    {
        "id": 96634,
        "name": "Uda",
        "latitude": "47.33645000",
        "longitude": "26.57165000",
        "country": "Romania",
        "country_id": 181
    },
    {
        "id": 96635,
        "name": "Uda",
        "latitude": "44.91667000",
        "longitude": "24.56667000",
        "country": "Romania",
        "country_id": 181
    },
    {
        "id": 64577,
        "name": "Uda Shi",
        "latitude": "34.52035000",
        "longitude": "135.99787000",
        "country": "Japan",
        "country_id": 109
    },
    {
        "id": 96636,
        "name": "Uda-Clocociov",
        "latitude": "43.88791000",
        "longitude": "24.71437000",
        "country": "Romania",
        "country_id": 181
    },
    {
        "id": 96637,
        "name": "Uda-Paciurea",
        "latitude": "43.87979000",
        "longitude": "24.72379000",
        "country": "Romania",
        "country_id": 181
    },
    {
        "id": 102017,
        "name": "Udachny",
        "latitude": "66.42989000",
        "longitude": "112.40210000",
        "country": "Russia",
        "country_id": 182
    },
    {
        "id": 146133,
        "name": "Udadumbara",
        "latitude": "7.35000000",
        "longitude": "80.83333300",
        "country": "Sri Lanka",
        "country_id": 208
    },
    {
        "id": 134249,
        "name": "Udaipur",
        "latitude": "23.53333000",
        "longitude": "91.48333000",
        "country": "India",
        "country_id": 101
    },
    {
        "id": 134250,
        "name": "Udaipur",
        "latitude": "24.33000000",
        "longitude": "73.77000000",
        "country": "India",
        "country_id": 101
    },
    {
        "id": 134251,
        "name": "Udaipura",
        "latitude": "23.07434000",
        "longitude": "78.51108000",
        "country": "India",
        "country_id": 101
    },
    {
        "id": 134252,
        "name": "Udalguri",
        "latitude": "26.75367000",
        "longitude": "92.10215000",
        "country": "India",
        "country_id": 101
    },
    {
        "id": 134253,
        "name": "Udangudi",
        "latitude": "8.42918000",
        "longitude": "78.02968000",
        "country": "India",
        "country_id": 101
    },
    {
        "id": 88447,
        "name": "Udanin",
        "latitude": "51.03740000",
        "longitude": "16.45469000",
        "country": "Poland",
        "country_id": 176
    },
    {
        "id": 146158,
        "name": "Udapalatha",
        "latitude": "7.11515526",
        "longitude": "80.60248340",
        "country": "Sri Lanka",
        "country_id": 208
    },
    {
        "id": 102018,
        "name": "Udarnyy",
        "latitude": "54.34090000",
        "longitude": "42.86110000",
        "country": "Russia",
        "country_id": 182
    },
    {
        "id": 102019,
        "name": "Udarnyy",
        "latitude": "44.34917000",
        "longitude": "42.50528000",
        "country": "Russia",
        "country_id": 182
    },
    {
        "id": 134254,
        "name": "Udayagiri",
        "latitude": "20.12416000",
        "longitude": "84.36869000",
        "country": "India",
        "country_id": 101
    },
    {
        "id": 78806,
        "name": "Uddel",
        "latitude": "52.25917000",
        "longitude": "5.78056000",
        "country": "Netherlands",
        "country_id": 156
    },
    {
        "id": 103894,
        "name": "Uddevalla",
        "latitude": "58.34784000",
        "longitude": "11.94240000",
        "country": "Sweden",
        "country_id": 213
    },
    {
        "id": 145333,
        "name": "Uddiawan",
        "latitude": "16.55888889",
        "longitude": "121.15111111",
        "country": "Philippines",
        "country_id": 174
    },
    {
        "id": 85242,
        "name": "Uddiawan",
        "latitude": "16.55888000",
        "longitude": "121.15124000",
        "country": "Philippines",
        "country_id": 174
    },
    {
        "id": 51690,
        "name": "Uddingston",
        "latitude": "55.81971000",
        "longitude": "-4.08362000",
        "country": "United Kingdom",
        "country_id": 232
    },
    {
        "id": 102020,
        "name": "Udel’naya",
        "latitude": "60.01636000",
        "longitude": "30.31815000",
        "country": "Russia",
        "country_id": 182
    },
    {
        "id": 102021,
        "name": "Udel’naya",
        "latitude": "55.62536000",
        "longitude": "38.00285000",
        "country": "Russia",
        "country_id": 182
    },
    {
        "id": 78807,
        "name": "Uden",
        "latitude": "51.66083000",
        "longitude": "5.61944000",
        "country": "Netherlands",
        "country_id": 156
    },
    {
        "id": 29715,
        "name": "Udenhausen",
        "latitude": "51.46385000",
        "longitude": "9.46335000",
        "country": "Germany",
        "country_id": 82
    },
    {
        "id": 29716,
        "name": "Udenheim",
        "latitude": "49.86472000",
        "longitude": "8.17167000",
        "country": "Germany",
        "country_id": 82
    },
    {
        "id": 78808,
        "name": "Udenhout",
        "latitude": "51.60917000",
        "longitude": "5.14306000",
        "country": "Netherlands",
        "country_id": 156
    },
    {
        "id": 29717,
        "name": "Uder",
        "latitude": "51.36243000",
        "longitude": "10.07210000",
        "country": "Germany",
        "country_id": 82
    },
    {
        "id": 3639,
        "name": "Uderns",
        "latitude": "47.31667000",
        "longitude": "11.86667000",
        "country": "Austria",
        "country_id": 15
    },
    {
        "id": 96638,
        "name": "Udeşti",
        "latitude": "47.56667000",
        "longitude": "26.41667000",
        "country": "Romania",
        "country_id": 181
    },
    {
        "id": 134255,
        "name": "Udgir",
        "latitude": "18.39258000",
        "longitude": "77.11756000",
        "country": "India",
        "country_id": 101
    },
    {
        "id": 148573,
        "name": "Udhailiyah",
        "latitude": "25.13330000",
        "longitude": "49.30000000",
        "country": "Saudi Arabia",
        "country_id": 194
    },
    {
        "id": 134256,
        "name": "Udham Singh Nagar",
        "latitude": "29.02746000",
        "longitude": "79.52347000",
        "country": "India",
        "country_id": 101
    },
    {
        "id": 134257,
        "name": "Udhampur",
        "latitude": "33.00000000",
        "longitude": "75.16667000",
        "country": "India",
        "country_id": 101
    },
    {
        "id": 77119,
        "name": "Udi",
        "latitude": "6.31592000",
        "longitude": "7.42086000",
        "country": "Nigeria",
        "country_id": 161
    },
    {
        "id": 102022,
        "name": "Udimskiy",
        "latitude": "61.14171000",
        "longitude": "45.91443000",
        "country": "Russia",
        "country_id": 182
    },
    {
        "id": 61587,
        "name": "Udine",
        "latitude": "46.06930000",
        "longitude": "13.23715000",
        "country": "Italy",
        "country_id": 107
    },
    {
        "id": 18622,
        "name": "Udligenswil",
        "latitude": "47.09005000",
        "longitude": "8.40335000",
        "country": "Switzerland",
        "country_id": 214
    },
    {
        "id": 102023,
        "name": "Udobnaya",
        "latitude": "44.19320000",
        "longitude": "41.55290000",
        "country": "Russia",
        "country_id": 182
    },
    {
        "id": 102024,
        "name": "Udomlya",
        "latitude": "57.87944000",
        "longitude": "34.99250000",
        "country": "Russia",
        "country_id": 182
    },
    {
        "id": 106738,
        "name": "Udon Thani",
        "latitude": "17.41567000",
        "longitude": "102.78589000",
        "country": "Thailand",
        "country_id": 219
    },
    {
        "id": 39224,
        "name": "Udot-Fonuweisom Municipality",
        "latitude": "7.38900000",
        "longitude": "151.70800000",
        "country": "Micronesia",
        "country_id": 143
    },
    {
        "id": 134258,
        "name": "Udpura",
        "latitude": "24.73355000",
        "longitude": "75.97514000",
        "country": "India",
        "country_id": 101
    },
    {
        "id": 146157,
        "name": "Ududumbara",
        "latitude": "7.31434839",
        "longitude": "80.87707756",
        "country": "Sri Lanka",
        "country_id": 208
    },
    {
        "id": 134259,
        "name": "Udumalaippettai",
        "latitude": "10.58806000",
        "longitude": "77.24779000",
        "country": "India",
        "country_id": 101
    },
    {
        "id": 146156,
        "name": "Udunuwara",
        "latitude": "7.22777866",
        "longitude": "80.55894578",
        "country": "Sri Lanka",
        "country_id": 208
    },
    {
        "id": 134260,
        "name": "Udupi",
        "latitude": "13.50000000",
        "longitude": "74.87000000",
        "country": "India",
        "country_id": 101
    },
    {
        "id": 96639,
        "name": "Udupu",
        "latitude": "44.39657000",
        "longitude": "25.14488000",
        "country": "Romania",
        "country_id": 181
    },
    {
        "id": 152883,
        "name": "Udías",
        "latitude": "0.00000000",
        "longitude": "0.00000000",
        "country": "Spain",
        "country_id": 207
    },
    {
        "id": 18623,
        "name": "Ueberstorf",
        "latitude": "46.86587000",
        "longitude": "7.30998000",
        "country": "Switzerland",
        "country_id": 214
    },
    {
        "id": 29718,
        "name": "Uebigau",
        "latitude": "51.59415000",
        "longitude": "13.29983000",
        "country": "Germany",
        "country_id": 82
    },
    {
        "id": 29719,
        "name": "Ueckermünde",
        "latitude": "53.73795000",
        "longitude": "14.04473000",
        "country": "Germany",
        "country_id": 82
    },
    {
        "id": 148246,
        "name": "Ueda",
        "latitude": "36.40194444",
        "longitude": "138.24916667",
        "country": "Japan",
        "country_id": 109
    },
    {
        "id": 64578,
        "name": "Ueda",
        "latitude": "36.40265000",
        "longitude": "138.28161000",
        "country": "Japan",
        "country_id": 109
    },
    {
        "id": 64579,
        "name": "Ueda Shi",
        "latitude": "36.38352000",
        "longitude": "138.24186000",
        "country": "Japan",
        "country_id": 109
    },
    {
        "id": 29720,
        "name": "Uedem",
        "latitude": "51.66520000",
        "longitude": "6.27371000",
        "country": "Germany",
        "country_id": 82
    },
    {
        "id": 29721,
        "name": "Uehlfeld",
        "latitude": "49.67085000",
        "longitude": "10.72017000",
        "country": "Germany",
        "country_id": 82
    },
    {
        "id": 29722,
        "name": "Uehrde",
        "latitude": "52.09902000",
        "longitude": "10.76523000",
        "country": "Germany",
        "country_id": 82
    },
    {
        "id": 64580,
        "name": "Uekimachi-mōno",
        "latitude": "32.89964000",
        "longitude": "130.68898000",
        "country": "Japan",
        "country_id": 109
    },
    {
        "id": 29723,
        "name": "Uelsen",
        "latitude": "52.50000000",
        "longitude": "6.88333000",
        "country": "Germany",
        "country_id": 82
    },
    {
        "id": 29724,
        "name": "Uelversheim",
        "latitude": "49.81000000",
        "longitude": "8.28861000",
        "country": "Germany",
        "country_id": 82
    },
    {
        "id": 29725,
        "name": "Uelzen",
        "latitude": "52.96572000",
        "longitude": "10.56111000",
        "country": "Germany",
        "country_id": 82
    },
    {
        "id": 29726,
        "name": "Uenglingen",
        "latitude": "52.61797000",
        "longitude": "11.80893000",
        "country": "Germany",
        "country_id": 82
    },
    {
        "id": 64581,
        "name": "Ueno-ebisumachi",
        "latitude": "34.75856000",
        "longitude": "136.13108000",
        "country": "Japan",
        "country_id": 109
    },
    {
        "id": 64582,
        "name": "Uenohara",
        "latitude": "35.61667000",
        "longitude": "139.11667000",
        "country": "Japan",
        "country_id": 109
    },
    {
        "id": 64583,
        "name": "Uenohara-shi",
        "latitude": "35.65000000",
        "longitude": "139.05000000",
        "country": "Japan",
        "country_id": 109
    },
    {
        "id": 18624,
        "name": "Uerikon",
        "latitude": "47.23672000",
        "longitude": "8.75730000",
        "country": "Switzerland",
        "country_id": 214
    },
    {
        "id": 18625,
        "name": "Uerkheim",
        "latitude": "47.30353000",
        "longitude": "8.02320000",
        "country": "Switzerland",
        "country_id": 214
    },
    {
        "id": 18626,
        "name": "Uetendorf",
        "latitude": "46.77392000",
        "longitude": "7.57251000",
        "country": "Switzerland",
        "country_id": 214
    },
    {
        "id": 29727,
        "name": "Uetersen",
        "latitude": "53.68769000",
        "longitude": "9.66394000",
        "country": "Germany",
        "country_id": 82
    },
    {
        "id": 18627,
        "name": "Uetikon",
        "latitude": "47.26441000",
        "longitude": "8.67925000",
        "country": "Switzerland",
        "country_id": 214
    },
    {
        "id": 18628,
        "name": "Uetikon / Grossdorf",
        "latitude": "47.26654000",
        "longitude": "8.67765000",
        "country": "Switzerland",
        "country_id": 214
    },
    {
        "id": 29728,
        "name": "Uettingen",
        "latitude": "49.79472000",
        "longitude": "9.73056000",
        "country": "Germany",
        "country_id": 82
    },
    {
        "id": 29729,
        "name": "Uetze",
        "latitude": "52.46511000",
        "longitude": "10.20467000",
        "country": "Germany",
        "country_id": 82
    },
    {
        "id": 102025,
        "name": "Ufa",
        "latitude": "54.74306000",
        "longitude": "55.96779000",
        "country": "Russia",
        "country_id": 182
    },
    {
        "id": 3640,
        "name": "Ufer",
        "latitude": "48.24842000",
        "longitude": "14.49977000",
        "country": "Austria",
        "country_id": 15
    },
    {
        "id": 51691,
        "name": "Uffculme",
        "latitude": "50.90604000",
        "longitude": "-3.32746000",
        "country": "United Kingdom",
        "country_id": 232
    },
    {
        "id": 78809,
        "name": "Uffelte",
        "latitude": "52.79000000",
        "longitude": "6.28056000",
        "country": "Netherlands",
        "country_id": 156
    },
    {
        "id": 29730,
        "name": "Uffenheim",
        "latitude": "49.54415000",
        "longitude": "10.23286000",
        "country": "Germany",
        "country_id": 82
    },
    {
        "id": 47423,
        "name": "Uffholtz",
        "latitude": "47.82082000",
        "longitude": "7.17785000",
        "country": "France",
        "country_id": 75
    },
    {
        "id": 29731,
        "name": "Uffing",
        "latitude": "47.71378000",
        "longitude": "11.15034000",
        "country": "Germany",
        "country_id": 82
    },
    {
        "id": 102026,
        "name": "Ufimskiy",
        "latitude": "56.70840000",
        "longitude": "58.05170000",
        "country": "Russia",
        "country_id": 182
    },
    {
        "id": 29732,
        "name": "Uftrungen",
        "latitude": "51.49859000",
        "longitude": "10.98066000",
        "country": "Germany",
        "country_id": 82
    },
    {
        "id": 77120,
        "name": "Uga",
        "latitude": "5.93576000",
        "longitude": "7.07930000",
        "country": "Nigeria",
        "country_id": 161
    },
    {
        "id": 145334,
        "name": "Ugac Sur",
        "latitude": "17.61333333",
        "longitude": "121.71583333",
        "country": "Philippines",
        "country_id": 174
    },
    {
        "id": 85243,
        "name": "Ugac Sur",
        "latitude": "17.61325000",
        "longitude": "121.71583000",
        "country": "Philippines",
        "country_id": 174
    },
    {
        "id": 145335,
        "name": "Ugad",
        "latitude": "17.30750000",
        "longitude": "121.80027778",
        "country": "Philippines",
        "country_id": 174
    },
    {
        "id": 85244,
        "name": "Ugad",
        "latitude": "17.30750000",
        "longitude": "121.80042000",
        "country": "Philippines",
        "country_id": 174
    },
    {
        "id": 151295,
        "name": "Ugao-Miraballes",
        "latitude": "0.00000000",
        "longitude": "0.00000000",
        "country": "Spain",
        "country_id": 207
    },
    {
        "id": 9732,
        "name": "Ugarchin",
        "latitude": "43.10000000",
        "longitude": "24.41667000",
        "country": "Bulgaria",
        "country_id": 34
    },
    {
        "id": 77121,
        "name": "Ugbokpo",
        "latitude": "7.65321000",
        "longitude": "7.88410000",
        "country": "Nigeria",
        "country_id": 161
    },
    {
        "id": 78810,
        "name": "Ugchelen",
        "latitude": "52.18464000",
        "longitude": "5.93177000",
        "country": "Netherlands",
        "country_id": 156
    },
    {
        "id": 37674,
        "name": "Ugena",
        "latitude": "40.15572000",
        "longitude": "-3.87603000",
        "country": "Spain",
        "country_id": 207
    },
    {
        "id": 61588,
        "name": "Ugento",
        "latitude": "39.92724000",
        "longitude": "18.15832000",
        "country": "Italy",
        "country_id": 107
    },
    {
        "id": 77122,
        "name": "Ugep",
        "latitude": "5.80865000",
        "longitude": "8.08098000",
        "country": "Nigeria",
        "country_id": 161
    },
    {
        "id": 61589,
        "name": "Uggia-Pazzera-Bizzarrino",
        "latitude": "43.83434000",
        "longitude": "10.83154000",
        "country": "Italy",
        "country_id": 107
    },
    {
        "id": 61591,
        "name": "Uggiano la Chiesa",
        "latitude": "40.10091000",
        "longitude": "18.44872000",
        "country": "Italy",
        "country_id": 107
    },
    {
        "id": 61590,
        "name": "Uggiano Montefusco",
        "latitude": "40.38612000",
        "longitude": "17.60460000",
        "country": "Italy",
        "country_id": 107
    },
    {
        "id": 61592,
        "name": "Uggiate Trevano",
        "latitude": "45.82338000",
        "longitude": "8.95964000",
        "country": "Italy",
        "country_id": 107
    },
    {
        "id": 77123,
        "name": "Ughelli",
        "latitude": "5.48956000",
        "longitude": "6.00407000",
        "country": "Nigeria",
        "country_id": 161
    },
    {
        "id": 47424,
        "name": "Ugine",
        "latitude": "45.75571000",
        "longitude": "6.41503000",
        "country": "France",
        "country_id": 75
    },
    {
        "id": 102027,
        "name": "Uglegorsk",
        "latitude": "49.08047000",
        "longitude": "142.06449000",
        "country": "Russia",
        "country_id": 182
    },
    {
        "id": 102028,
        "name": "Uglegorskiy",
        "latitude": "48.24274000",
        "longitude": "41.25310000",
        "country": "Russia",
        "country_id": 182
    },
    {
        "id": 102029,
        "name": "Uglegorskiy Rayon",
        "latitude": "49.08333000",
        "longitude": "142.08333000",
        "country": "Russia",
        "country_id": 182
    },
    {
        "id": 102030,
        "name": "Uglekamensk",
        "latitude": "43.21996000",
        "longitude": "133.23177000",
        "country": "Russia",
        "country_id": 182
    },
    {
        "id": 102031,
        "name": "Uglerodovskiy",
        "latitude": "48.14558000",
        "longitude": "40.06352000",
        "country": "Russia",
        "country_id": 182
    },
    {
        "id": 102032,
        "name": "Ugleural’skiy",
        "latitude": "58.94430000",
        "longitude": "57.59370000",
        "country": "Russia",
        "country_id": 182
    },
    {
        "id": 102033,
        "name": "Uglezavodsk",
        "latitude": "47.32332000",
        "longitude": "142.63317000",
        "country": "Russia",
        "country_id": 182
    },
    {
        "id": 102034,
        "name": "Uglich",
        "latitude": "57.52750000",
        "longitude": "38.33167000",
        "country": "Russia",
        "country_id": 182
    },
    {
        "id": 102035,
        "name": "Uglichskiy Rayon",
        "latitude": "57.50000000",
        "longitude": "38.41667000",
        "country": "Russia",
        "country_id": 182
    },
    {
        "id": 54948,
        "name": "Ugljan",
        "latitude": "44.13083000",
        "longitude": "15.10306000",
        "country": "Croatia",
        "country_id": 55
    },
    {
        "id": 8407,
        "name": "Ugljevik",
        "latitude": "44.66361000",
        "longitude": "19.02028000",
        "country": "Bosnia and Herzegovina",
        "country_id": 28
    },
    {
        "id": 102036,
        "name": "Uglovka",
        "latitude": "58.23917000",
        "longitude": "33.51083000",
        "country": "Russia",
        "country_id": 182
    },
    {
        "id": 102037,
        "name": "Uglovoye",
        "latitude": "43.32807000",
        "longitude": "132.08832000",
        "country": "Russia",
        "country_id": 182
    },
    {
        "id": 110648,
        "name": "Uglovoye",
        "latitude": "44.82146000",
        "longitude": "33.60452000",
        "country": "Ukraine",
        "country_id": 230
    },
    {
        "id": 102038,
        "name": "Uglovskoye",
        "latitude": "51.35570000",
        "longitude": "80.19420000",
        "country": "Russia",
        "country_id": 182
    },
    {
        "id": 102039,
        "name": "Uglyanets",
        "latitude": "51.81908000",
        "longitude": "39.59606000",
        "country": "Russia",
        "country_id": 182
    },
    {
        "id": 67941,
        "name": "Ugoofaaru",
        "latitude": "5.66812000",
        "longitude": "73.03017000",
        "country": "Maldives",
        "country_id": 133
    },
    {
        "id": 102040,
        "name": "Ugra",
        "latitude": "54.77775000",
        "longitude": "34.32674000",
        "country": "Russia",
        "country_id": 182
    },
    {
        "id": 97419,
        "name": "Ugrinovci",
        "latitude": "44.87635000",
        "longitude": "20.18763000",
        "country": "Serbia",
        "country_id": 196
    },
    {
        "id": 134261,
        "name": "Ugu",
        "latitude": "26.79681000",
        "longitude": "80.32093000",
        "country": "India",
        "country_id": 101
    },
    {
        "id": 131278,
        "name": "Ugu District Municipality",
        "latitude": "-30.54365000",
        "longitude": "30.27480000",
        "country": "South Africa",
        "country_id": 204
    },
    {
        "id": 149064,
        "name": "Ugweno",
        "latitude": "-3.65000000",
        "longitude": "37.65000000",
        "country": "Tanzania",
        "country_id": 218
    },
    {
        "id": 37675,
        "name": "Ugíjar",
        "latitude": "36.96087000",
        "longitude": "-3.05523000",
        "country": "Spain",
        "country_id": 207
    },
    {
        "id": 153061,
        "name": "Uharte-Arakil",
        "latitude": "0.00000000",
        "longitude": "0.00000000",
        "country": "Spain",
        "country_id": 207
    },
    {
        "id": 88448,
        "name": "Uherce Mineralne",
        "latitude": "49.46455000",
        "longitude": "22.39829000",
        "country": "Poland",
        "country_id": 176
    },
    {
        "id": 23206,
        "name": "Uherské Hradiště",
        "latitude": "49.06975000",
        "longitude": "17.45969000",
        "country": "Czech Republic",
        "country_id": 58
    },
    {
        "id": 23207,
        "name": "Uherský Brod",
        "latitude": "49.02513000",
        "longitude": "17.64715000",
        "country": "Czech Republic",
        "country_id": 58
    },
    {
        "id": 23208,
        "name": "Uherský Ostroh",
        "latitude": "48.98556000",
        "longitude": "17.38984000",
        "country": "Czech Republic",
        "country_id": 58
    },
    {
        "id": 29733,
        "name": "Uhingen",
        "latitude": "48.70475000",
        "longitude": "9.58570000",
        "country": "Germany",
        "country_id": 82
    },
    {
        "id": 127954,
        "name": "Uhland",
        "latitude": "29.95772000",
        "longitude": "-97.78611000",
        "country": "United States",
        "country_id": 233
    },
    {
        "id": 29734,
        "name": "Uhldingen-Mühlhofen",
        "latitude": "47.73333000",
        "longitude": "9.25000000",
        "country": "Germany",
        "country_id": 82
    },
    {
        "id": 23209,
        "name": "Uhlířské Janovice",
        "latitude": "49.88019000",
        "longitude": "15.06481000",
        "country": "Czech Republic",
        "country_id": 58
    },
    {
        "id": 110649,
        "name": "Uhniv",
        "latitude": "50.36811000",
        "longitude": "23.74895000",
        "country": "Ukraine",
        "country_id": 230
    },
    {
        "id": 141766,
        "name": "Uhrichsville",
        "latitude": "40.39312000",
        "longitude": "-81.34650000",
        "country": "United States",
        "country_id": 233
    },
    {
        "id": 110650,
        "name": "Uhryniv",
        "latitude": "48.95520000",
        "longitude": "24.69292000",
        "country": "Ukraine",
        "country_id": 230
    },
    {
        "id": 18629,
        "name": "Uhwiesen",
        "latitude": "47.67074000",
        "longitude": "8.63542000",
        "country": "Switzerland",
        "country_id": 214
    },
    {
        "id": 29735,
        "name": "Uhyst",
        "latitude": "51.36469000",
        "longitude": "14.50600000",
        "country": "Germany",
        "country_id": 82
    },
    {
        "id": 15440,
        "name": "Uibaí",
        "latitude": "-11.39060000",
        "longitude": "-42.15615000",
        "country": "Brazil",
        "country_id": 31
    },
    {
        "id": 29736,
        "name": "Uichteritz",
        "latitude": "51.20652000",
        "longitude": "11.92215000",
        "country": "Germany",
        "country_id": 82
    },
    {
        "id": 65520,
        "name": "Uijeongbu-si",
        "latitude": "37.73865000",
        "longitude": "127.04770000",
        "country": "South Korea",
        "country_id": 116
    },
    {
        "id": 146648,
        "name": "Uila",
        "latitude": "46.93055556",
        "longitude": "24.61805556",
        "country": "Romania",
        "country_id": 181
    },
    {
        "id": 96640,
        "name": "Uileacu de Beiuș",
        "latitude": "46.68532000",
        "longitude": "22.22148000",
        "country": "Romania",
        "country_id": 181
    },
    {
        "id": 102041,
        "name": "Uinskoye",
        "latitude": "56.88174000",
        "longitude": "56.58135000",
        "country": "Russia",
        "country_id": 182
    },
    {
        "id": 127955,
        "name": "Uinta County",
        "latitude": "41.28756000",
        "longitude": "-110.54759000",
        "country": "United States",
        "country_id": 233
    },
    {
        "id": 127956,
        "name": "Uintah",
        "latitude": "41.14411000",
        "longitude": "-111.92327000",
        "country": "United States",
        "country_id": 233
    },
    {
        "id": 127957,
        "name": "Uintah County",
        "latitude": "40.12495000",
        "longitude": "-109.51839000",
        "country": "United States",
        "country_id": 233
    },
    {
        "id": 96641,
        "name": "Uioara de Jos",
        "latitude": "46.37087000",
        "longitude": "23.83863000",
        "country": "Romania",
        "country_id": 181
    },
    {
        "id": 142981,
        "name": "Uiramutã",
        "latitude": "4.59583333",
        "longitude": "-60.16777778",
        "country": "Brazil",
        "country_id": 31
    },
    {
        "id": 15441,
        "name": "Uirapuru",
        "latitude": "-14.14128000",
        "longitude": "-49.93396000",
        "country": "Brazil",
        "country_id": 31
    },
    {
        "id": 15442,
        "name": "Uiraúna",
        "latitude": "-6.49650000",
        "longitude": "-38.38015000",
        "country": "Brazil",
        "country_id": 31
    },
    {
        "id": 65521,
        "name": "Uiryeong-gun",
        "latitude": "35.39230000",
        "longitude": "128.26917000",
        "country": "South Korea",
        "country_id": 116
    },
    {
        "id": 65522,
        "name": "Uiseong-gun",
        "latitude": "36.36122000",
        "longitude": "128.61517000",
        "country": "South Korea",
        "country_id": 116
    },
    {
        "id": 150015,
        "name": "Uitdam",
        "latitude": "52.41917000",
        "longitude": "5.07083000",
        "country": "Netherlands",
        "country_id": 156
    },
    {
        "id": 131279,
        "name": "Uitenhage",
        "latitude": "-33.75757000",
        "longitude": "25.39710000",
        "country": "South Africa",
        "country_id": 204
    },
    {
        "id": 78811,
        "name": "Uitgeest",
        "latitude": "52.52917000",
        "longitude": "4.70972000",
        "country": "Netherlands",
        "country_id": 156
    },
    {
        "id": 78812,
        "name": "Uithoorn",
        "latitude": "52.23750000",
        "longitude": "4.82639000",
        "country": "Netherlands",
        "country_id": 156
    },
    {
        "id": 78813,
        "name": "Uithuizen",
        "latitude": "53.40750000",
        "longitude": "6.67083000",
        "country": "Netherlands",
        "country_id": 156
    },
    {
        "id": 78814,
        "name": "Uithuizermeeden",
        "latitude": "53.41417000",
        "longitude": "6.72361000",
        "country": "Netherlands",
        "country_id": 156
    },
    {
        "id": 18630,
        "name": "Uitikon",
        "latitude": "47.36911000",
        "longitude": "8.45699000",
        "country": "Switzerland",
        "country_id": 214
    },
    {
        "id": 96642,
        "name": "Uivar",
        "latitude": "45.65806000",
        "longitude": "20.90583000",
        "country": "Romania",
        "country_id": 181
    },
    {
        "id": 65523,
        "name": "Uiwang-si",
        "latitude": "37.34500000",
        "longitude": "126.97575000",
        "country": "South Korea",
        "country_id": 116
    },
    {
        "id": 37676,
        "name": "Ujados",
        "latitude": "41.23526000",
        "longitude": "-3.00482000",
        "country": "Spain",
        "country_id": 207
    },
    {
        "id": 8606,
        "name": "Ujalpur",
        "latitude": "23.80562000",
        "longitude": "88.62444000",
        "country": "Bangladesh",
        "country_id": 19
    },
    {
        "id": 8185,
        "name": "Ujar",
        "latitude": "40.51902000",
        "longitude": "47.65423000",
        "country": "Azerbaijan",
        "country_id": 16
    },
    {
        "id": 88449,
        "name": "Ujazd",
        "latitude": "51.59781000",
        "longitude": "19.92225000",
        "country": "Poland",
        "country_id": 176
    },
    {
        "id": 88450,
        "name": "Ujazd",
        "latitude": "50.38938000",
        "longitude": "18.34929000",
        "country": "Poland",
        "country_id": 176
    },
    {
        "id": 134262,
        "name": "Ujhani",
        "latitude": "28.00311000",
        "longitude": "79.00821000",
        "country": "India",
        "country_id": 101
    },
    {
        "id": 64584,
        "name": "Uji",
        "latitude": "34.89044000",
        "longitude": "135.80325000",
        "country": "Japan",
        "country_id": 109
    },
    {
        "id": 64585,
        "name": "Uji Shi",
        "latitude": "34.90296000",
        "longitude": "135.82039000",
        "country": "Japan",
        "country_id": 109
    },
    {
        "id": 64586,
        "name": "Ujiie",
        "latitude": "36.68333000",
        "longitude": "139.96667000",
        "country": "Japan",
        "country_id": 109
    },
    {
        "id": 134263,
        "name": "Ujjain",
        "latitude": "23.41667000",
        "longitude": "75.50000000",
        "country": "India",
        "country_id": 101
    },
    {
        "id": 88451,
        "name": "Ujsoły",
        "latitude": "49.48290000",
        "longitude": "19.13801000",
        "country": "Poland",
        "country_id": 176
    },
    {
        "id": 37677,
        "name": "Ujué",
        "latitude": "42.50000000",
        "longitude": "-1.50000000",
        "country": "Spain",
        "country_id": 207
    },
    {
        "id": 88452,
        "name": "Ujście",
        "latitude": "53.05339000",
        "longitude": "16.73201000",
        "country": "Poland",
        "country_id": 176
    },
    {
        "id": 105948,
        "name": "Uk",
        "latitude": "55.07900000",
        "longitude": "98.85860000",
        "country": "Ukraine",
        "country_id": 230
    },
    {
        "id": 77124,
        "name": "Ukata",
        "latitude": "10.83122000",
        "longitude": "5.82494000",
        "country": "Nigeria",
        "country_id": 161
    },
    {
        "id": 102042,
        "name": "Ukholovo",
        "latitude": "53.79290000",
        "longitude": "40.48920000",
        "country": "Russia",
        "country_id": 182
    },
    {
        "id": 134264,
        "name": "Ukhrul",
        "latitude": "25.04828000",
        "longitude": "94.35883000",
        "country": "India",
        "country_id": 101
    },
    {
        "id": 102043,
        "name": "Ukhta",
        "latitude": "63.56705000",
        "longitude": "53.68348000",
        "country": "Russia",
        "country_id": 182
    },
    {
        "id": 64587,
        "name": "Uki Shi",
        "latitude": "32.62669000",
        "longitude": "130.65491000",
        "country": "Japan",
        "country_id": 109
    },
    {
        "id": 127958,
        "name": "Ukiah",
        "latitude": "39.15017000",
        "longitude": "-123.20778000",
        "country": "United States",
        "country_id": 233
    },
    {
        "id": 64588,
        "name": "Ukiha Shi",
        "latitude": "33.31184000",
        "longitude": "130.79325000",
        "country": "Japan",
        "country_id": 109
    },
    {
        "id": 134265,
        "name": "Uklana",
        "latitude": "29.51124000",
        "longitude": "75.87823000",
        "country": "India",
        "country_id": 101
    },
    {
        "id": 66689,
        "name": "Ukmerge",
        "latitude": "55.25000000",
        "longitude": "24.75000000",
        "country": "Lithuania",
        "country_id": 126
    },
    {
        "id": 110651,
        "name": "Ukrainka",
        "latitude": "50.14317000",
        "longitude": "30.74612000",
        "country": "Ukraine",
        "country_id": 230
    },
    {
        "id": 110652,
        "name": "Ukrainka",
        "latitude": "44.88730000",
        "longitude": "34.13973000",
        "country": "Ukraine",
        "country_id": 230
    },
    {
        "id": 110653,
        "name": "Ukromnoye",
        "latitude": "45.04272000",
        "longitude": "34.00312000",
        "country": "Ukraine",
        "country_id": 230
    },
    {
        "id": 134266,
        "name": "Ukwa",
        "latitude": "21.97102000",
        "longitude": "80.46625000",
        "country": "India",
        "country_id": 101
    },
    {
        "id": 75865,
        "name": "Ukúm",
        "latitude": "19.24197000",
        "longitude": "-89.33529000",
        "country": "Mexico",
        "country_id": 142
    },
    {
        "id": 142108,
        "name": "Ula",
        "latitude": "22.72250000",
        "longitude": "88.55556000",
        "country": "India",
        "country_id": 101
    },
    {
        "id": 145095,
        "name": "Ula",
        "latitude": "7.13222222",
        "longitude": "125.49222222",
        "country": "Philippines",
        "country_id": 174
    },
    {
        "id": 144330,
        "name": "Ula",
        "latitude": "7.13222222",
        "longitude": "125.49222222",
        "country": "Philippines",
        "country_id": 174
    },
    {
        "id": 85245,
        "name": "Ula",
        "latitude": "7.13222000",
        "longitude": "125.49222000",
        "country": "Philippines",
        "country_id": 174
    },
    {
        "id": 108616,
        "name": "Ula",
        "latitude": "37.10491000",
        "longitude": "28.41667000",
        "country": "Turkey",
        "country_id": 225
    },
    {
        "id": 67736,
        "name": "Ulaangom",
        "latitude": "49.98111000",
        "longitude": "92.06667000",
        "country": "Mongolia",
        "country_id": 146
    },
    {
        "id": 67737,
        "name": "Ulaanhudag",
        "latitude": "47.33333000",
        "longitude": "104.50000000",
        "country": "Mongolia",
        "country_id": 146
    },
    {
        "id": 102044,
        "name": "Ulan-Ude",
        "latitude": "51.82721000",
        "longitude": "107.60627000",
        "country": "Russia",
        "country_id": 182
    },
    {
        "id": 149065,
        "name": "Ulanga",
        "latitude": "-8.34361000",
        "longitude": "34.28970000",
        "country": "Tanzania",
        "country_id": 218
    },
    {
        "id": 20203,
        "name": "Ulanhot",
        "latitude": "46.08333000",
        "longitude": "122.08333000",
        "country": "China",
        "country_id": 45
    },
    {
        "id": 110654,
        "name": "Ulaniv",
        "latitude": "49.69512000",
        "longitude": "28.13298000",
        "country": "Ukraine",
        "country_id": 230
    },
    {
        "id": 88453,
        "name": "Ulanów",
        "latitude": "50.49031000",
        "longitude": "22.26362000",
        "country": "Poland",
        "country_id": 176
    },
    {
        "id": 146136,
        "name": "Ulapane",
        "latitude": "7.10277800",
        "longitude": "80.56111100",
        "country": "Sri Lanka",
        "country_id": 208
    },
    {
        "id": 61593,
        "name": "Ulassai",
        "latitude": "39.81033000",
        "longitude": "9.49962000",
        "country": "Italy",
        "country_id": 107
    },
    {
        "id": 108618,
        "name": "Ulaş",
        "latitude": "39.44492000",
        "longitude": "37.03900000",
        "country": "Turkey",
        "country_id": 225
    },
    {
        "id": 66974,
        "name": "Ulbroka",
        "latitude": "56.93630000",
        "longitude": "24.30387000",
        "country": "Latvia",
        "country_id": 120
    },
    {
        "id": 51692,
        "name": "Ulceby",
        "latitude": "53.61667000",
        "longitude": "-0.33333000",
        "country": "United Kingdom",
        "country_id": 232
    },
    {
        "id": 67373,
        "name": "Ulcinj",
        "latitude": "41.92936000",
        "longitude": "19.22436000",
        "country": "Montenegro",
        "country_id": 147
    },
    {
        "id": 37678,
        "name": "Ulea",
        "latitude": "38.14045000",
        "longitude": "-1.33007000",
        "country": "Spain",
        "country_id": 207
    },
    {
        "id": 79620,
        "name": "Ulefoss",
        "latitude": "59.28245000",
        "longitude": "9.26548000",
        "country": "Norway",
        "country_id": 165
    },
    {
        "id": 37679,
        "name": "Uleila del Campo",
        "latitude": "37.18460000",
        "longitude": "-2.20491000",
        "country": "Spain",
        "country_id": 207
    },
    {
        "id": 78815,
        "name": "Ulestraten",
        "latitude": "50.90583000",
        "longitude": "5.78194000",
        "country": "Netherlands",
        "country_id": 156
    },
    {
        "id": 102045,
        "name": "Uletovskiy Rayon",
        "latitude": "51.00000000",
        "longitude": "112.00000000",
        "country": "Russia",
        "country_id": 182
    },
    {
        "id": 102046,
        "name": "Ulety",
        "latitude": "51.35589000",
        "longitude": "112.48430000",
        "country": "Russia",
        "country_id": 182
    },
    {
        "id": 30953,
        "name": "Ulfborg",
        "latitude": "56.26725000",
        "longitude": "8.32167000",
        "country": "Denmark",
        "country_id": 59
    },
    {
        "id": 134267,
        "name": "Ulhasnagar",
        "latitude": "19.21667000",
        "longitude": "73.15000000",
        "country": "India",
        "country_id": 101
    },
    {
        "id": 88454,
        "name": "Ulhówek",
        "latitude": "50.44969000",
        "longitude": "23.79956000",
        "country": "Poland",
        "country_id": 176
    },
    {
        "id": 15443,
        "name": "Ulianópolis",
        "latitude": "-3.81225000",
        "longitude": "-47.50094000",
        "country": "Brazil",
        "country_id": 31
    },
    {
        "id": 67738,
        "name": "Uliastay",
        "latitude": "47.74167000",
        "longitude": "96.84444000",
        "country": "Mongolia",
        "country_id": 146
    },
    {
        "id": 96643,
        "name": "Ulieşti",
        "latitude": "44.58333000",
        "longitude": "25.41667000",
        "country": "Romania",
        "country_id": 181
    },
    {
        "id": 146649,
        "name": "Ulieș",
        "latitude": "46.73348000",
        "longitude": "24.33354800",
        "country": "Romania",
        "country_id": 181
    },
    {
        "id": 89715,
        "name": "Ulimang",
        "latitude": "7.62416000",
        "longitude": "134.64208000",
        "country": "Palau",
        "country_id": 168
    },
    {
        "id": 85246,
        "name": "Uling",
        "latitude": "10.28048000",
        "longitude": "123.71000000",
        "country": "Philippines",
        "country_id": 174
    },
    {
        "id": 39225,
        "name": "Ulithi Municipality",
        "latitude": "9.90000000",
        "longitude": "139.60000000",
        "country": "Micronesia",
        "country_id": 143
    },
    {
        "id": 61594,
        "name": "Uliveto Terme",
        "latitude": "43.69609000",
        "longitude": "10.51728000",
        "country": "Italy",
        "country_id": 107
    },
    {
        "id": 65524,
        "name": "Uljin-gun",
        "latitude": "36.91968000",
        "longitude": "129.31966000",
        "country": "South Korea",
        "country_id": 116
    },
    {
        "id": 97420,
        "name": "Uljma",
        "latitude": "45.04213000",
        "longitude": "21.15393000",
        "country": "Serbia",
        "country_id": 196
    },
    {
        "id": 65525,
        "name": "Ulju-gun",
        "latitude": "35.56233000",
        "longitude": "129.12690000",
        "country": "South Korea",
        "country_id": 116
    },
    {
        "id": 7597,
        "name": "Ulladulla",
        "latitude": "-35.35906000",
        "longitude": "150.47247000",
        "country": "Australia",
        "country_id": 14
    },
    {
        "id": 134268,
        "name": "Ullal",
        "latitude": "12.80569000",
        "longitude": "74.86058000",
        "country": "India",
        "country_id": 101
    },
    {
        "id": 51693,
        "name": "Ullapool",
        "latitude": "57.89872000",
        "longitude": "-5.16039000",
        "country": "United Kingdom",
        "country_id": 232
    },
    {
        "id": 37680,
        "name": "Ullastrell",
        "latitude": "41.52643000",
        "longitude": "1.95537000",
        "country": "Spain",
        "country_id": 207
    },
    {
        "id": 151719,
        "name": "Ullastret",
        "latitude": "0.00000000",
        "longitude": "0.00000000",
        "country": "Spain",
        "country_id": 207
    },
    {
        "id": 39088,
        "name": "Ullava",
        "latitude": "63.60000000",
        "longitude": "24.08333000",
        "country": "Finland",
        "country_id": 74
    },
    {
        "id": 37681,
        "name": "Ulldecona",
        "latitude": "40.59734000",
        "longitude": "0.44718000",
        "country": "Spain",
        "country_id": 207
    },
    {
        "id": 37682,
        "name": "Ulldemolins",
        "latitude": "41.32216000",
        "longitude": "0.87650000",
        "country": "Spain",
        "country_id": 207
    },
    {
        "id": 79621,
        "name": "Ullensaker",
        "latitude": "60.14401000",
        "longitude": "11.17441000",
        "country": "Norway",
        "country_id": 165
    },
    {
        "id": 79622,
        "name": "Ullensvang",
        "latitude": "60.37501000",
        "longitude": "6.72073000",
        "country": "Norway",
        "country_id": 165
    },
    {
        "id": 30954,
        "name": "Ullerslev",
        "latitude": "55.36172000",
        "longitude": "10.65190000",
        "country": "Denmark",
        "country_id": 59
    },
    {
        "id": 65526,
        "name": "Ulleung-gun",
        "latitude": "37.50442000",
        "longitude": "130.86084000",
        "country": "South Korea",
        "country_id": 116
    },
    {
        "id": 21567,
        "name": "Ulloa",
        "latitude": "4.70745000",
        "longitude": "-75.77781000",
        "country": "Colombia",
        "country_id": 48
    },
    {
        "id": 102047,
        "name": "Ulluaya",
        "latitude": "42.37377000",
        "longitude": "47.37451000",
        "country": "Russia",
        "country_id": 182
    },
    {
        "id": 102048,
        "name": "Ullubiyaul",
        "latitude": "42.59689000",
        "longitude": "47.71825000",
        "country": "Russia",
        "country_id": 182
    },
    {
        "id": 47425,
        "name": "Ully-Saint-Georges",
        "latitude": "49.27914000",
        "longitude": "2.28094000",
        "country": "France",
        "country_id": 75
    },
    {
        "id": 37683,
        "name": "Ullà",
        "latitude": "42.04964000",
        "longitude": "3.10754000",
        "country": "Spain",
        "country_id": 207
    },
    {
        "id": 29737,
        "name": "Ulm",
        "latitude": "48.39841000",
        "longitude": "9.99155000",
        "country": "Germany",
        "country_id": 82
    },
    {
        "id": 96644,
        "name": "Ulma",
        "latitude": "47.88333000",
        "longitude": "25.30000000",
        "country": "Romania",
        "country_id": 181
    },
    {
        "id": 29738,
        "name": "Ulmen",
        "latitude": "50.20943000",
        "longitude": "6.97941000",
        "country": "Germany",
        "country_id": 82
    },
    {
        "id": 95611,
        "name": "Ulmeni",
        "latitude": "47.46209000",
        "longitude": "23.27925000",
        "country": "Romania",
        "country_id": 181
    },
    {
        "id": 96645,
        "name": "Ulmeni",
        "latitude": "45.06667000",
        "longitude": "26.65000000",
        "country": "Romania",
        "country_id": 181
    },
    {
        "id": 96647,
        "name": "Ulmeni",
        "latitude": "44.15000000",
        "longitude": "26.71667000",
        "country": "Romania",
        "country_id": 181
    },
    {
        "id": 96648,
        "name": "Ulmi",
        "latitude": "44.48667000",
        "longitude": "25.78028000",
        "country": "Romania",
        "country_id": 181
    },
    {
        "id": 96649,
        "name": "Ulmi",
        "latitude": "44.90000000",
        "longitude": "25.50000000",
        "country": "Romania",
        "country_id": 181
    },
    {
        "id": 146842,
        "name": "Ulmoasa",
        "latitude": "47.73242300",
        "longitude": "23.53324100",
        "country": "Romania",
        "country_id": 181
    },
    {
        "id": 96650,
        "name": "Ulmu",
        "latitude": "44.95000000",
        "longitude": "27.31667000",
        "country": "Romania",
        "country_id": 181
    },
    {
        "id": 96651,
        "name": "Ulmu",
        "latitude": "44.26667000",
        "longitude": "26.91667000",
        "country": "Romania",
        "country_id": 181
    },
    {
        "id": 103896,
        "name": "Ulricehamn",
        "latitude": "57.79159000",
        "longitude": "13.41422000",
        "country": "Sweden",
        "country_id": 213
    },
    {
        "id": 3641,
        "name": "Ulrichsberg",
        "latitude": "48.67498000",
        "longitude": "13.91049000",
        "country": "Austria",
        "country_id": 15
    },
    {
        "id": 3642,
        "name": "Ulrichskirchen",
        "latitude": "48.40000000",
        "longitude": "16.48333000",
        "country": "Austria",
        "country_id": 15
    },
    {
        "id": 29739,
        "name": "Ulrichstein",
        "latitude": "50.57550000",
        "longitude": "9.19272000",
        "country": "Germany",
        "country_id": 82
    },
    {
        "id": 51694,
        "name": "Ulrome",
        "latitude": "53.99198000",
        "longitude": "-0.22968000",
        "country": "United Kingdom",
        "country_id": 232
    },
    {
        "id": 78816,
        "name": "Ulrum",
        "latitude": "53.35917000",
        "longitude": "6.33333000",
        "country": "Netherlands",
        "country_id": 156
    },
    {
        "id": 65527,
        "name": "Ulsan",
        "latitude": "35.53722000",
        "longitude": "129.31667000",
        "country": "South Korea",
        "country_id": 116
    },
    {
        "id": 79623,
        "name": "Ulstein",
        "latitude": "62.34423000",
        "longitude": "5.85241000",
        "country": "Norway",
        "country_id": 165
    },
    {
        "id": 79624,
        "name": "Ulsteinvik",
        "latitude": "62.34317000",
        "longitude": "5.84869000",
        "country": "Norway",
        "country_id": 165
    },
    {
        "id": 79625,
        "name": "Ulsteinvik weather pws station",
        "latitude": "62.34338000",
        "longitude": "5.84385000",
        "country": "Norway",
        "country_id": 165
    },
    {
        "id": 127959,
        "name": "Ulster County",
        "latitude": "41.88815000",
        "longitude": "-74.25857000",
        "country": "United States",
        "country_id": 233
    },
    {
        "id": 63072,
        "name": "Ulster Spring",
        "latitude": "18.32113000",
        "longitude": "-77.49681000",
        "country": "Jamaica",
        "country_id": 108
    },
    {
        "id": 30955,
        "name": "Ulstrup",
        "latitude": "56.38994000",
        "longitude": "9.79354000",
        "country": "Denmark",
        "country_id": 59
    },
    {
        "id": 7598,
        "name": "Ultimo",
        "latitude": "-33.87722000",
        "longitude": "151.19720000",
        "country": "Australia",
        "country_id": 14
    },
    {
        "id": 61595,
        "name": "Ultimo - Ulten",
        "latitude": "46.54832000",
        "longitude": "11.00417000",
        "country": "Italy",
        "country_id": 107
    },
    {
        "id": 37684,
        "name": "Ultramort",
        "latitude": "42.03640000",
        "longitude": "3.03455000",
        "country": "Spain",
        "country_id": 207
    },
    {
        "id": 153112,
        "name": "Ultzama",
        "latitude": "0.00000000",
        "longitude": "0.00000000",
        "country": "Spain",
        "country_id": 207
    },
    {
        "id": 76586,
        "name": "Ulu Tiram",
        "latitude": "1.60000000",
        "longitude": "103.81667000",
        "country": "Malaysia",
        "country_id": 132
    },
    {
        "id": 102049,
        "name": "Ulu-Telyak",
        "latitude": "54.91570000",
        "longitude": "56.98270000",
        "country": "Russia",
        "country_id": 182
    },
    {
        "id": 142109,
        "name": "Uluberia",
        "latitude": "22.47000000",
        "longitude": "88.11000000",
        "country": "India",
        "country_id": 101
    },
    {
        "id": 108621,
        "name": "Ulubey",
        "latitude": "38.41987000",
        "longitude": "29.29129000",
        "country": "Turkey",
        "country_id": 225
    },
    {
        "id": 108622,
        "name": "Ulubey",
        "latitude": "40.86863000",
        "longitude": "37.75405000",
        "country": "Turkey",
        "country_id": 225
    },
    {
        "id": 108624,
        "name": "Uluborlu",
        "latitude": "38.07825000",
        "longitude": "30.45019000",
        "country": "Turkey",
        "country_id": 225
    },
    {
        "id": 108626,
        "name": "Uludere",
        "latitude": "37.44074000",
        "longitude": "42.85236000",
        "country": "Turkey",
        "country_id": 225
    },
    {
        "id": 130012,
        "name": "Ulug‘nor Tumani",
        "latitude": "40.75000000",
        "longitude": "71.70000000",
        "country": "Uzbekistan",
        "country_id": 236
    },
    {
        "id": 102050,
        "name": "Ulukulevo",
        "latitude": "54.43550000",
        "longitude": "56.32210000",
        "country": "Russia",
        "country_id": 182
    },
    {
        "id": 108628,
        "name": "Ulukışla",
        "latitude": "37.54592000",
        "longitude": "34.58737000",
        "country": "Turkey",
        "country_id": 225
    },
    {
        "id": 131280,
        "name": "Ulundi",
        "latitude": "-28.33523000",
        "longitude": "31.41617000",
        "country": "South Africa",
        "country_id": 204
    },
    {
        "id": 108629,
        "name": "Ulus",
        "latitude": "41.59373000",
        "longitude": "32.65066000",
        "country": "Turkey",
        "country_id": 225
    },
    {
        "id": 78817,
        "name": "Ulvenhout",
        "latitude": "51.54907000",
        "longitude": "4.79931000",
        "country": "Netherlands",
        "country_id": 156
    },
    {
        "id": 51695,
        "name": "Ulverston",
        "latitude": "54.19594000",
        "longitude": "-3.09626000",
        "country": "United Kingdom",
        "country_id": 232
    },
    {
        "id": 7599,
        "name": "Ulverstone",
        "latitude": "-41.16026000",
        "longitude": "146.18242000",
        "country": "Australia",
        "country_id": 14
    },
    {
        "id": 79626,
        "name": "Ulvik",
        "latitude": "60.56719000",
        "longitude": "6.91871000",
        "country": "Norway",
        "country_id": 165
    },
    {
        "id": 39089,
        "name": "Ulvila",
        "latitude": "61.42844000",
        "longitude": "21.87103000",
        "country": "Finland",
        "country_id": 74
    },
    {
        "id": 102051,
        "name": "Ulyanovsk",
        "latitude": "54.32824000",
        "longitude": "48.38657000",
        "country": "Russia",
        "country_id": 182
    },
    {
        "id": 102052,
        "name": "Ulyanovskiy Rayon",
        "latitude": "54.33528000",
        "longitude": "48.01694000",
        "country": "Russia",
        "country_id": 182
    },
    {
        "id": 110655,
        "name": "Ulychne",
        "latitude": "49.23385000",
        "longitude": "23.65111000",
        "country": "Ukraine",
        "country_id": 230
    },
    {
        "id": 127960,
        "name": "Ulysses",
        "latitude": "37.58141000",
        "longitude": "-101.35517000",
        "country": "United States",
        "country_id": 233
    },
    {
        "id": 61596,
        "name": "Ulà Tirso",
        "latitude": "40.04570000",
        "longitude": "8.90326000",
        "country": "Italy",
        "country_id": 107
    },
    {
        "id": 272,
        "name": "Ulëz",
        "latitude": "41.68278000",
        "longitude": "19.89333000",
        "country": "Albania",
        "country_id": 3
    },
    {
        "id": 102053,
        "name": "Ul’yanovka",
        "latitude": "59.63944000",
        "longitude": "30.76472000",
        "country": "Russia",
        "country_id": 182
    },
    {
        "id": 102054,
        "name": "Ul’yanovskiy Rayon",
        "latitude": "53.66667000",
        "longitude": "35.66667000",
        "country": "Russia",
        "country_id": 182
    },
    {
        "id": 102977,
        "name": "Um Jar Al Gharbiyya",
        "latitude": "13.80130000",
        "longitude": "32.40780000",
        "country": "Sudan",
        "country_id": 209
    },
    {
        "id": 85247,
        "name": "Umabay",
        "latitude": "12.30954000",
        "longitude": "123.67961000",
        "country": "Philippines",
        "country_id": 174
    },
    {
        "id": 54949,
        "name": "Umag",
        "latitude": "45.43139000",
        "longitude": "13.52389000",
        "country": "Croatia",
        "country_id": 55
    },
    {
        "id": 54950,
        "name": "Umag-Umago",
        "latitude": "45.43462000",
        "longitude": "13.52589000",
        "country": "Croatia",
        "country_id": 55
    },
    {
        "id": 85248,
        "name": "Umaganhan",
        "latitude": "11.32920000",
        "longitude": "124.37700000",
        "country": "Philippines",
        "country_id": 174
    },
    {
        "id": 148210,
        "name": "Umaganhan",
        "latitude": "11.32916667",
        "longitude": "124.37694444",
        "country": "Philippines",
        "country_id": 174
    },
    {
        "id": 148258,
        "name": "Umaji",
        "latitude": "33.55527778",
        "longitude": "134.04805556",
        "country": "Japan",
        "country_id": 109
    },
    {
        "id": 75866,
        "name": "Uman",
        "latitude": "20.88213000",
        "longitude": "-89.74649000",
        "country": "Mexico",
        "country_id": 142
    },
    {
        "id": 110656,
        "name": "Uman",
        "latitude": "48.74838000",
        "longitude": "30.22184000",
        "country": "Ukraine",
        "country_id": 230
    },
    {
        "id": 39226,
        "name": "Uman-Fonuweisom Municipality",
        "latitude": "7.29900000",
        "longitude": "151.87700000",
        "country": "Micronesia",
        "country_id": 143
    },
    {
        "id": 85249,
        "name": "Umanday Centro",
        "latitude": "15.93800000",
        "longitude": "120.21530000",
        "country": "Philippines",
        "country_id": 174
    },
    {
        "id": 146123,
        "name": "Umanday Centro",
        "latitude": "15.93805556",
        "longitude": "120.21527778",
        "country": "Philippines",
        "country_id": 174
    },
    {
        "id": 134269,
        "name": "Umarga",
        "latitude": "17.83841000",
        "longitude": "76.62331000",
        "country": "India",
        "country_id": 101
    },
    {
        "id": 15444,
        "name": "Umari",
        "latitude": "-6.60924000",
        "longitude": "-38.71952000",
        "country": "Brazil",
        "country_id": 31
    },
    {
        "id": 134270,
        "name": "Umaria",
        "latitude": "23.52473000",
        "longitude": "80.83716000",
        "country": "India",
        "country_id": 101
    },
    {
        "id": 15445,
        "name": "Umarizal",
        "latitude": "-6.00593000",
        "longitude": "-37.80698000",
        "country": "Brazil",
        "country_id": 31
    },
    {
        "id": 134272,
        "name": "Umarkhed",
        "latitude": "19.60144000",
        "longitude": "77.68878000",
        "country": "India",
        "country_id": 101
    },
    {
        "id": 134273,
        "name": "Umarkot",
        "latitude": "19.66529000",
        "longitude": "82.20629000",
        "country": "India",
        "country_id": 101
    },
    {
        "id": 85757,
        "name": "Umarkot",
        "latitude": "25.36329000",
        "longitude": "69.74184000",
        "country": "Pakistan",
        "country_id": 167
    },
    {
        "id": 147659,
        "name": "Umarpada",
        "latitude": "21.45000000",
        "longitude": "73.50000000",
        "country": "India",
        "country_id": 101
    },
    {
        "id": 127961,
        "name": "Umatilla",
        "latitude": "28.92943000",
        "longitude": "-81.66563000",
        "country": "United States",
        "country_id": 233
    },
    {
        "id": 127962,
        "name": "Umatilla",
        "latitude": "45.91735000",
        "longitude": "-119.34252000",
        "country": "United States",
        "country_id": 233
    },
    {
        "id": 127963,
        "name": "Umatilla County",
        "latitude": "45.59190000",
        "longitude": "-118.73683000",
        "country": "United States",
        "country_id": 233
    },
    {
        "id": 102055,
        "name": "Umba",
        "latitude": "66.68706000",
        "longitude": "34.34291000",
        "country": "Russia",
        "country_id": 182
    },
    {
        "id": 15446,
        "name": "Umbaúba",
        "latitude": "-11.40045000",
        "longitude": "-37.66270000",
        "country": "Brazil",
        "country_id": 31
    },
    {
        "id": 143864,
        "name": "Umberg",
        "latitude": "46.64833000",
        "longitude": "13.95750000",
        "country": "Austria",
        "country_id": 15
    },
    {
        "id": 61597,
        "name": "Umbertide",
        "latitude": "43.30341000",
        "longitude": "12.33749000",
        "country": "Italy",
        "country_id": 107
    },
    {
        "id": 21568,
        "name": "Umbita",
        "latitude": "5.18411000",
        "longitude": "-73.48341000",
        "country": "Colombia",
        "country_id": 48
    },
    {
        "id": 37685,
        "name": "Umbrete",
        "latitude": "37.36881000",
        "longitude": "-6.15847000",
        "country": "Spain",
        "country_id": 207
    },
    {
        "id": 61598,
        "name": "Umbriatico",
        "latitude": "39.35336000",
        "longitude": "16.91798000",
        "country": "Italy",
        "country_id": 107
    },
    {
        "id": 37686,
        "name": "Umbrías",
        "latitude": "40.31530000",
        "longitude": "-5.58037000",
        "country": "Spain",
        "country_id": 207
    },
    {
        "id": 96652,
        "name": "Umbrăreşti",
        "latitude": "45.71667000",
        "longitude": "27.46667000",
        "country": "Romania",
        "country_id": 181
    },
    {
        "id": 96654,
        "name": "Umbrărești-Deal",
        "latitude": "45.70000000",
        "longitude": "27.46667000",
        "country": "Romania",
        "country_id": 181
    },
    {
        "id": 15447,
        "name": "Umburanas",
        "latitude": "-10.50860000",
        "longitude": "-41.17419000",
        "country": "Brazil",
        "country_id": 31
    },
    {
        "id": 15448,
        "name": "Umburatiba",
        "latitude": "-17.25657000",
        "longitude": "-40.66878000",
        "country": "Brazil",
        "country_id": 31
    },
    {
        "id": 15449,
        "name": "Umbuzeiro",
        "latitude": "-7.67111000",
        "longitude": "-35.73927000",
        "country": "Brazil",
        "country_id": 31
    },
    {
        "id": 143778,
        "name": "Umerkot",
        "latitude": "25.36138889",
        "longitude": "69.73611111",
        "country": "Pakistan",
        "country_id": 167
    },
    {
        "id": 85758,
        "name": "Umerkot District",
        "latitude": "25.37000000",
        "longitude": "69.73000000",
        "country": "Pakistan",
        "country_id": 167
    },
    {
        "id": 102056,
        "name": "Umet",
        "latitude": "54.11611000",
        "longitude": "42.69750000",
        "country": "Russia",
        "country_id": 182
    },
    {
        "id": 103898,
        "name": "Umeå",
        "latitude": "63.82842000",
        "longitude": "20.25972000",
        "country": "Sweden",
        "country_id": 213
    },
    {
        "id": 131324,
        "name": "uMgungundlovu",
        "latitude": "-29.50927000",
        "longitude": "30.19838000",
        "country": "South Africa",
        "country_id": 204
    },
    {
        "id": 3643,
        "name": "Umhausen",
        "latitude": "47.13503000",
        "longitude": "10.92826000",
        "country": "Austria",
        "country_id": 15
    },
    {
        "id": 64589,
        "name": "Umi",
        "latitude": "33.56826000",
        "longitude": "130.51009000",
        "country": "Japan",
        "country_id": 109
    },
    {
        "id": 7600,
        "name": "Umina Beach",
        "latitude": "-33.52314000",
        "longitude": "151.31325000",
        "country": "Australia",
        "country_id": 14
    },
    {
        "id": 85250,
        "name": "Umingan",
        "latitude": "15.90021000",
        "longitude": "120.79841000",
        "country": "Philippines",
        "country_id": 174
    },
    {
        "id": 146124,
        "name": "Umingan",
        "latitude": "15.90000000",
        "longitude": "120.80000000",
        "country": "Philippines",
        "country_id": 174
    },
    {
        "id": 85251,
        "name": "Umiray",
        "latitude": "15.22060000",
        "longitude": "121.41110000",
        "country": "Philippines",
        "country_id": 174
    },
    {
        "id": 145777,
        "name": "Umiray",
        "latitude": "15.22055556",
        "longitude": "121.41111111",
        "country": "Philippines",
        "country_id": 174
    },
    {
        "id": 15450,
        "name": "Umirim",
        "latitude": "-3.70599000",
        "longitude": "-39.39689000",
        "country": "Brazil",
        "country_id": 31
    },
    {
        "id": 97421,
        "name": "Umka",
        "latitude": "44.67806000",
        "longitude": "20.30472000",
        "country": "Serbia",
        "country_id": 196
    },
    {
        "id": 131325,
        "name": "uMkhanyakude District Municipality",
        "latitude": "-27.62236000",
        "longitude": "32.32945000",
        "country": "South Africa",
        "country_id": 204
    },
    {
        "id": 29740,
        "name": "Umkirch",
        "latitude": "48.03333000",
        "longitude": "7.76667000",
        "country": "Germany",
        "country_id": 82
    },
    {
        "id": 63191,
        "name": "Umm al Qiţţayn",
        "latitude": "32.31449000",
        "longitude": "36.62826000",
        "country": "Jordan",
        "country_id": 111
    },
    {
        "id": 47,
        "name": "Umm AL Quwain",
        "latitude": "25.49326000",
        "longitude": "55.73520000",
        "country": "United Arab Emirates",
        "country_id": 231
    },
    {
        "id": 48,
        "name": "Umm Al Quwain City",
        "latitude": "25.56473000",
        "longitude": "55.55517000",
        "country": "United Arab Emirates",
        "country_id": 231
    },
    {
        "id": 63192,
        "name": "Umm as Summāq",
        "latitude": "31.88542000",
        "longitude": "35.85430000",
        "country": "Jordan",
        "country_id": 111
    },
    {
        "id": 102890,
        "name": "Umm as Sāhik",
        "latitude": "26.65361000",
        "longitude": "49.91639000",
        "country": "Saudi Arabia",
        "country_id": 194
    },
    {
        "id": 89869,
        "name": "Umm Bāb",
        "latitude": "25.21417000",
        "longitude": "50.80722000",
        "country": "Qatar",
        "country_id": 179
    },
    {
        "id": 57570,
        "name": "Umm el Faḥm",
        "latitude": "32.51725000",
        "longitude": "35.15349000",
        "country": "Israel",
        "country_id": 106
    },
    {
        "id": 102978,
        "name": "Umm Kaddadah",
        "latitude": "13.60169000",
        "longitude": "26.68759000",
        "country": "Sudan",
        "country_id": 209
    },
    {
        "id": 102889,
        "name": "Umm Lajj",
        "latitude": "25.02126000",
        "longitude": "37.26850000",
        "country": "Saudi Arabia",
        "country_id": 194
    },
    {
        "id": 63190,
        "name": "Umm Qays",
        "latitude": "32.65348000",
        "longitude": "35.68457000",
        "country": "Jordan",
        "country_id": 111
    },
    {
        "id": 134546,
        "name": "Umm Qaşr",
        "latitude": "30.03620000",
        "longitude": "47.91951000",
        "country": "Iraq",
        "country_id": 104
    },
    {
        "id": 148587,
        "name": "Umm Radamah",
        "latitude": "28.67985000",
        "longitude": "44.69549000",
        "country": "Saudi Arabia",
        "country_id": 194
    },
    {
        "id": 102979,
        "name": "Umm Ruwaba",
        "latitude": "12.90610000",
        "longitude": "31.21580000",
        "country": "Sudan",
        "country_id": 209
    },
    {
        "id": 89870,
        "name": "Umm Şalāl Muḩammad",
        "latitude": "25.41524000",
        "longitude": "51.40647000",
        "country": "Qatar",
        "country_id": 179
    },
    {
        "id": 29741,
        "name": "Ummendorf",
        "latitude": "52.15645000",
        "longitude": "11.18151000",
        "country": "Germany",
        "country_id": 82
    },
    {
        "id": 29742,
        "name": "Ummendorf",
        "latitude": "48.06667000",
        "longitude": "9.83333000",
        "country": "Germany",
        "country_id": 82
    },
    {
        "id": 29743,
        "name": "Ummern",
        "latitude": "52.59111000",
        "longitude": "10.43195000",
        "country": "Germany",
        "country_id": 82
    },
    {
        "id": 134277,
        "name": "Umrala",
        "latitude": "21.84353000",
        "longitude": "71.80305000",
        "country": "India",
        "country_id": 101
    },
    {
        "id": 134274,
        "name": "Umred",
        "latitude": "20.85396000",
        "longitude": "79.32466000",
        "country": "India",
        "country_id": 101
    },
    {
        "id": 134275,
        "name": "Umreth",
        "latitude": "22.69881000",
        "longitude": "73.11561000",
        "country": "India",
        "country_id": 101
    },
    {
        "id": 147566,
        "name": "Umri",
        "latitude": "26.33333333",
        "longitude": "79.25000000",
        "country": "India",
        "country_id": 101
    },
    {
        "id": 134276,
        "name": "Umri",
        "latitude": "26.51056000",
        "longitude": "78.93667000",
        "country": "India",
        "country_id": 101
    },
    {
        "id": 77125,
        "name": "Umuahia",
        "latitude": "5.52491000",
        "longitude": "7.49461000",
        "country": "Nigeria",
        "country_id": 161
    },
    {
        "id": 15451,
        "name": "Umuarama",
        "latitude": "-23.76639000",
        "longitude": "-53.32500000",
        "country": "Brazil",
        "country_id": 31
    },
    {
        "id": 77126,
        "name": "Umunede",
        "latitude": "6.26549000",
        "longitude": "6.30962000",
        "country": "Nigeria",
        "country_id": 161
    },
    {
        "id": 131505,
        "name": "Umzingwane District",
        "latitude": "-20.34704000",
        "longitude": "28.94994000",
        "country": "Zimbabwe",
        "country_id": 247
    },
    {
        "id": 131326,
        "name": "uMzinyathi District Municipality",
        "latitude": "-28.58570000",
        "longitude": "30.55883000",
        "country": "South Africa",
        "country_id": 204
    },
    {
        "id": 134471,
        "name": "Un",
        "latitude": "29.58479000",
        "longitude": "77.25540000",
        "country": "India",
        "country_id": 101
    },
    {
        "id": 134278,
        "name": "Un",
        "latitude": "23.88745000",
        "longitude": "71.76975000",
        "country": "India",
        "country_id": 101
    },
    {
        "id": 15452,
        "name": "Una",
        "latitude": "-15.16451000",
        "longitude": "-39.20568000",
        "country": "Brazil",
        "country_id": 31
    },
    {
        "id": 134279,
        "name": "Una",
        "latitude": "31.46493000",
        "longitude": "76.26914000",
        "country": "India",
        "country_id": 101
    },
    {
        "id": 134280,
        "name": "Una",
        "latitude": "20.82318000",
        "longitude": "71.03795000",
        "country": "India",
        "country_id": 101
    },
    {
        "id": 127964,
        "name": "Unadilla",
        "latitude": "32.26155000",
        "longitude": "-83.73657000",
        "country": "United States",
        "country_id": 233
    },
    {
        "id": 127965,
        "name": "Unadilla",
        "latitude": "42.32536000",
        "longitude": "-75.31240000",
        "country": "United States",
        "country_id": 233
    },
    {
        "id": 134281,
        "name": "Unakoti",
        "latitude": "24.32781000",
        "longitude": "92.00377000",
        "country": "India",
        "country_id": 101
    },
    {
        "id": 127966,
        "name": "Unalaska",
        "latitude": "53.87413000",
        "longitude": "-166.53408000",
        "country": "United States",
        "country_id": 233
    },
    {
        "id": 7601,
        "name": "Unanderra",
        "latitude": "-34.45306000",
        "longitude": "150.84746000",
        "country": "Australia",
        "country_id": 14
    },
    {
        "id": 39227,
        "name": "Unanu Municipality",
        "latitude": "8.75000000",
        "longitude": "150.33950000",
        "country": "Micronesia",
        "country_id": 143
    },
    {
        "id": 66536,
        "name": "Unawatuna",
        "latitude": "6.02120000",
        "longitude": "80.25030000",
        "country": "Sri Lanka",
        "country_id": 208
    },
    {
        "id": 15453,
        "name": "Unaí",
        "latitude": "-16.58634000",
        "longitude": "-46.77009000",
        "country": "Brazil",
        "country_id": 31
    },
    {
        "id": 37687,
        "name": "Uncastillo",
        "latitude": "42.35963000",
        "longitude": "-1.12842000",
        "country": "Spain",
        "country_id": 207
    },
    {
        "id": 127967,
        "name": "Uncasville",
        "latitude": "41.43454000",
        "longitude": "-72.10980000",
        "country": "United States",
        "country_id": 233
    },
    {
        "id": 153113,
        "name": "Unciti",
        "latitude": "0.00000000",
        "longitude": "0.00000000",
        "country": "Spain",
        "country_id": 207
    },
    {
        "id": 29744,
        "name": "Undenheim",
        "latitude": "49.83806000",
        "longitude": "8.21889000",
        "country": "Germany",
        "country_id": 82
    },
    {
        "id": 7602,
        "name": "Underdale",
        "latitude": "-34.91803000",
        "longitude": "138.54704000",
        "country": "Australia",
        "country_id": 14
    },
    {
        "id": 7603,
        "name": "Underwood",
        "latitude": "-27.60885000",
        "longitude": "153.11130000",
        "country": "Australia",
        "country_id": 14
    },
    {
        "id": 127968,
        "name": "Underwood-Petersville",
        "latitude": "34.87695000",
        "longitude": "-87.69717000",
        "country": "United States",
        "country_id": 233
    },
    {
        "id": 102057,
        "name": "Undory",
        "latitude": "54.60849000",
        "longitude": "48.39276000",
        "country": "Russia",
        "country_id": 182
    },
    {
        "id": 67739,
        "name": "Undurkhaan",
        "latitude": "47.31944000",
        "longitude": "110.65556000",
        "country": "Mongolia",
        "country_id": 146
    },
    {
        "id": 37688,
        "name": "Undués de Lerda",
        "latitude": "42.56572000",
        "longitude": "-1.16944000",
        "country": "Spain",
        "country_id": 207
    },
    {
        "id": 51696,
        "name": "Undy",
        "latitude": "51.57526000",
        "longitude": "-2.81453000",
        "country": "United Kingdom",
        "country_id": 232
    },
    {
        "id": 21569,
        "name": "Une",
        "latitude": "4.30691000",
        "longitude": "-74.07104000",
        "country": "Colombia",
        "country_id": 48
    },
    {
        "id": 102058,
        "name": "Unecha",
        "latitude": "52.84591000",
        "longitude": "32.67394000",
        "country": "Russia",
        "country_id": 182
    },
    {
        "id": 102059,
        "name": "Unechskiy Rayon",
        "latitude": "52.83333000",
        "longitude": "32.83333000",
        "country": "Russia",
        "country_id": 182
    },
    {
        "id": 57047,
        "name": "Ungaran",
        "latitude": "-7.13972000",
        "longitude": "110.40500000",
        "country": "Indonesia",
        "country_id": 102
    },
    {
        "id": 85252,
        "name": "Ungca",
        "latitude": "10.75000000",
        "longitude": "122.55000000",
        "country": "Philippines",
        "country_id": 174
    },
    {
        "id": 3644,
        "name": "Ungenach",
        "latitude": "48.04756000",
        "longitude": "13.61472000",
        "country": "Austria",
        "country_id": 15
    },
    {
        "id": 3645,
        "name": "Ungerdorf",
        "latitude": "47.08333000",
        "longitude": "15.66667000",
        "country": "Austria",
        "country_id": 15
    },
    {
        "id": 29745,
        "name": "Ungerhausen",
        "latitude": "48.00566000",
        "longitude": "10.26672000",
        "country": "Germany",
        "country_id": 82
    },
    {
        "id": 47426,
        "name": "Ungersheim",
        "latitude": "47.87848000",
        "longitude": "7.30797000",
        "country": "France",
        "country_id": 75
    },
    {
        "id": 81118,
        "name": "Unggai Bena",
        "latitude": "-6.11667000",
        "longitude": "145.51667000",
        "country": "Papua New Guinea",
        "country_id": 171
    },
    {
        "id": 67334,
        "name": "Ungheni",
        "latitude": "47.21079000",
        "longitude": "27.80047000",
        "country": "Moldova",
        "country_id": 144
    },
    {
        "id": 96655,
        "name": "Ungheni",
        "latitude": "44.50000000",
        "longitude": "24.96667000",
        "country": "Romania",
        "country_id": 181
    },
    {
        "id": 146650,
        "name": "Ungheni",
        "latitude": "46.48583333",
        "longitude": "24.46083333",
        "country": "Romania",
        "country_id": 181
    },
    {
        "id": 96656,
        "name": "Ungra",
        "latitude": "45.98333000",
        "longitude": "25.26667000",
        "country": "Romania",
        "country_id": 181
    },
    {
        "id": 65528,
        "name": "Ungsang",
        "latitude": "35.40611000",
        "longitude": "129.16861000",
        "country": "South Korea",
        "country_id": 116
    },
    {
        "id": 65251,
        "name": "Ungsang-nodongjagu",
        "latitude": "42.35778000",
        "longitude": "130.46222000",
        "country": "North Korea",
        "country_id": 115
    },
    {
        "id": 96657,
        "name": "Unguraş",
        "latitude": "47.11667000",
        "longitude": "24.05000000",
        "country": "Romania",
        "country_id": 181
    },
    {
        "id": 146843,
        "name": "Unguraș",
        "latitude": "47.62904400",
        "longitude": "23.67893300",
        "country": "Romania",
        "country_id": 181
    },
    {
        "id": 96658,
        "name": "Ungureni",
        "latitude": "44.57804000",
        "longitude": "25.50006000",
        "country": "Romania",
        "country_id": 181
    },
    {
        "id": 96659,
        "name": "Ungureni",
        "latitude": "45.91307000",
        "longitude": "27.47000000",
        "country": "Romania",
        "country_id": 181
    },
    {
        "id": 96660,
        "name": "Ungureni",
        "latitude": "47.54631000",
        "longitude": "23.95241000",
        "country": "Romania",
        "country_id": 181
    },
    {
        "id": 96661,
        "name": "Ungureni",
        "latitude": "46.52283000",
        "longitude": "27.11186000",
        "country": "Romania",
        "country_id": 181
    },
    {
        "id": 96662,
        "name": "Ungureni",
        "latitude": "47.88176000",
        "longitude": "26.79899000",
        "country": "Romania",
        "country_id": 181
    },
    {
        "id": 96663,
        "name": "Ungureni-Jianu",
        "latitude": "47.88333000",
        "longitude": "26.78333000",
        "country": "Romania",
        "country_id": 181
    },
    {
        "id": 96664,
        "name": "Unguriu",
        "latitude": "45.27933000",
        "longitude": "26.63208000",
        "country": "Romania",
        "country_id": 181
    },
    {
        "id": 85253,
        "name": "Ungus-Ungus",
        "latitude": "5.05083000",
        "longitude": "119.83972000",
        "country": "Philippines",
        "country_id": 174
    },
    {
        "id": 144760,
        "name": "Ungus-Ungus",
        "latitude": "5.05083333",
        "longitude": "119.83972222",
        "country": "Philippines",
        "country_id": 174
    },
    {
        "id": 21570,
        "name": "Unguía",
        "latitude": "8.04364000",
        "longitude": "-77.09137000",
        "country": "Colombia",
        "country_id": 48
    },
    {
        "id": 134282,
        "name": "Unhel",
        "latitude": "23.33794000",
        "longitude": "75.55931000",
        "country": "India",
        "country_id": 101
    },
    {
        "id": 89617,
        "name": "Unhos",
        "latitude": "38.81958000",
        "longitude": "-9.12007000",
        "country": "Portugal",
        "country_id": 177
    },
    {
        "id": 143703,
        "name": "Unhos",
        "latitude": "38.82583333",
        "longitude": "-9.12138889",
        "country": "Portugal",
        "country_id": 177
    },
    {
        "id": 23210,
        "name": "Unhošť",
        "latitude": "50.08535000",
        "longitude": "14.13007000",
        "country": "Czech Republic",
        "country_id": 58
    },
    {
        "id": 102060,
        "name": "Uni",
        "latitude": "57.75100000",
        "longitude": "51.49130000",
        "country": "Russia",
        "country_id": 182
    },
    {
        "id": 134283,
        "name": "Uniara",
        "latitude": "26.15336000",
        "longitude": "75.21523000",
        "country": "India",
        "country_id": 101
    },
    {
        "id": 127969,
        "name": "Unicoi",
        "latitude": "36.19539000",
        "longitude": "-82.34958000",
        "country": "United States",
        "country_id": 233
    },
    {
        "id": 127970,
        "name": "Unicoi County",
        "latitude": "36.11082000",
        "longitude": "-82.43224000",
        "country": "United States",
        "country_id": 233
    },
    {
        "id": 85254,
        "name": "Unidad",
        "latitude": "8.53556000",
        "longitude": "126.22865000",
        "country": "Philippines",
        "country_id": 174
    },
    {
        "id": 144525,
        "name": "Unidad",
        "latitude": "8.53555556",
        "longitude": "126.22861111",
        "country": "Philippines",
        "country_id": 174
    },
    {
        "id": 75868,
        "name": "Unidad Acaquilpan",
        "latitude": "19.36694000",
        "longitude": "-98.93917000",
        "country": "Mexico",
        "country_id": 142
    },
    {
        "id": 75869,
        "name": "Unidad Grajales INFONAVIT",
        "latitude": "19.24126000",
        "longitude": "-97.81068000",
        "country": "Mexico",
        "country_id": 142
    },
    {
        "id": 75870,
        "name": "Unidad Habitacional 10 de Abril",
        "latitude": "18.75444000",
        "longitude": "-98.91611000",
        "country": "Mexico",
        "country_id": 142
    },
    {
        "id": 75871,
        "name": "Unidad Habitacional Antonio Osorio de León (Bojay)",
        "latitude": "20.04389000",
        "longitude": "-99.24472000",
        "country": "Mexico",
        "country_id": 142
    },
    {
        "id": 75872,
        "name": "Unidad Habitacional José María Morelos y Pavón",
        "latitude": "18.82028000",
        "longitude": "-99.26222000",
        "country": "Mexico",
        "country_id": 142
    },
    {
        "id": 75873,
        "name": "Unidad Habitacional Mariano Matamoros",
        "latitude": "18.74750000",
        "longitude": "-98.85222000",
        "country": "Mexico",
        "country_id": 142
    },
    {
        "id": 75874,
        "name": "Unidad Habitacional Rinconada Acolapa",
        "latitude": "18.89722000",
        "longitude": "-99.13139000",
        "country": "Mexico",
        "country_id": 142
    },
    {
        "id": 75875,
        "name": "Unidad Habitacional Santa Teresa",
        "latitude": "19.21611000",
        "longitude": "-99.55222000",
        "country": "Mexico",
        "country_id": 142
    },