[
    {
        "id": 143063,
        "name": "G. L. Garcia",
        "latitude": "18.12750000",
        "longitude": "-66.10416667",
        "country": "United States",
        "country_id": 233
    },
    {
        "id": 131113,
        "name": "Ga-Kgapane",
        "latitude": "-23.64378000",
        "longitude": "30.22324000",
        "country": "South Africa",
        "country_id": 204
    },
    {
        "id": 131114,
        "name": "Ga-Rankuwa",
        "latitude": "-25.61692000",
        "longitude": "27.99471000",
        "country": "South Africa",
        "country_id": 204
    },
    {
        "id": 2038,
        "name": "Gaaden",
        "latitude": "48.05364000",
        "longitude": "16.20003000",
        "country": "Austria",
        "country_id": 15
    },
    {
        "id": 2039,
        "name": "Gaal",
        "latitude": "47.27268000",
        "longitude": "14.67003000",
        "country": "Austria",
        "country_id": 15
    },
    {
        "id": 104796,
        "name": "Gaalkacyo",
        "latitude": "6.76972000",
        "longitude": "47.43083000",
        "country": "Somalia",
        "country_id": 203
    },
    {
        "id": 145484,
        "name": "Gabaldon",
        "latitude": "15.54777778",
        "longitude": "120.67722222",
        "country": "Philippines",
        "country_id": 174
    },
    {
        "id": 82543,
        "name": "Gabaldon",
        "latitude": "15.45220000",
        "longitude": "121.33870000",
        "country": "Philippines",
        "country_id": 174
    },
    {
        "id": 34369,
        "name": "Gabaldón",
        "latitude": "39.61667000",
        "longitude": "-1.93333000",
        "country": "Spain",
        "country_id": 207
    },
    {
        "id": 15734,
        "name": "Gabane",
        "latitude": "-24.66667000",
        "longitude": "25.78222000",
        "country": "Botswana",
        "country_id": 29
    },
    {
        "id": 82544,
        "name": "Gabao",
        "latitude": "12.99240000",
        "longitude": "124.01690000",
        "country": "Philippines",
        "country_id": 174
    },
    {
        "id": 76871,
        "name": "Gabarin",
        "latitude": "11.10930000",
        "longitude": "10.44410000",
        "country": "Nigeria",
        "country_id": 161
    },
    {
        "id": 42009,
        "name": "Gabarret",
        "latitude": "43.98779000",
        "longitude": "0.00978000",
        "country": "France",
        "country_id": 75
    },
    {
        "id": 82545,
        "name": "Gabas",
        "latitude": "10.72970000",
        "longitude": "124.79610000",
        "country": "Philippines",
        "country_id": 174
    },
    {
        "id": 148116,
        "name": "Gabas",
        "latitude": "10.72972222",
        "longitude": "124.79611111",
        "country": "Philippines",
        "country_id": 174
    },
    {
        "id": 82546,
        "name": "Gabawan",
        "latitude": "12.42714000",
        "longitude": "122.01332000",
        "country": "Philippines",
        "country_id": 174
    },
    {
        "id": 138766,
        "name": "Gabbio-Cereda-Ramate",
        "latitude": "45.90959000",
        "longitude": "8.42113000",
        "country": "Italy",
        "country_id": 107
    },
    {
        "id": 138767,
        "name": "Gabbioneta",
        "latitude": "45.21627000",
        "longitude": "10.22027000",
        "country": "Italy",
        "country_id": 107
    },
    {
        "id": 138768,
        "name": "Gabella",
        "latitude": "43.72360000",
        "longitude": "10.49726000",
        "country": "Italy",
        "country_id": 107
    },
    {
        "id": 2040,
        "name": "Gabersdorf",
        "latitude": "46.77722000",
        "longitude": "15.58417000",
        "country": "Austria",
        "country_id": 15
    },
    {
        "id": 144937,
        "name": "Gabi",
        "latitude": "7.62138889",
        "longitude": "126.09194444",
        "country": "Philippines",
        "country_id": 174
    },
    {
        "id": 144172,
        "name": "Gabi",
        "latitude": "7.62138889",
        "longitude": "126.09194444",
        "country": "Philippines",
        "country_id": 174
    },
    {
        "id": 82547,
        "name": "Gabi",
        "latitude": "7.62150000",
        "longitude": "126.09200000",
        "country": "Philippines",
        "country_id": 174
    },
    {
        "id": 82548,
        "name": "Gabi",
        "latitude": "11.59560000",
        "longitude": "123.33760000",
        "country": "Philippines",
        "country_id": 174
    },
    {
        "id": 82549,
        "name": "Gabi",
        "latitude": "10.26306000",
        "longitude": "123.96139000",
        "country": "Philippines",
        "country_id": 174
    },
    {
        "id": 138769,
        "name": "Gabiano",
        "latitude": "45.15714000",
        "longitude": "8.19469000",
        "country": "Italy",
        "country_id": 107
    },
    {
        "id": 151406,
        "name": "Gabias Las",
        "latitude": "0.00000000",
        "longitude": "0.00000000",
        "country": "Spain",
        "country_id": 207
    },
    {
        "id": 138770,
        "name": "Gabicce Mare",
        "latitude": "43.96471000",
        "longitude": "12.75641000",
        "country": "Italy",
        "country_id": 107
    },
    {
        "id": 70500,
        "name": "Gabino Barreda",
        "latitude": "18.17922000",
        "longitude": "-96.09162000",
        "country": "Mexico",
        "country_id": 142
    },
    {
        "id": 151332,
        "name": "Gabiria",
        "latitude": "0.00000000",
        "longitude": "0.00000000",
        "country": "Spain",
        "country_id": 207
    },
    {
        "id": 25340,
        "name": "Gablenz",
        "latitude": "51.53333000",
        "longitude": "14.66667000",
        "country": "Germany",
        "country_id": 82
    },
    {
        "id": 25341,
        "name": "Gablingen",
        "latitude": "48.45000000",
        "longitude": "10.81667000",
        "country": "Germany",
        "country_id": 82
    },
    {
        "id": 2041,
        "name": "Gablitz",
        "latitude": "48.22856000",
        "longitude": "16.15437000",
        "country": "Austria",
        "country_id": 15
    },
    {
        "id": 15735,
        "name": "Gaborone",
        "latitude": "-24.76234000",
        "longitude": "25.79950000",
        "country": "Botswana",
        "country_id": 29
    },
    {
        "id": 70501,
        "name": "Gabriel Esquinca",
        "latitude": "16.94056000",
        "longitude": "-93.17555000",
        "country": "Mexico",
        "country_id": 142
    },
    {
        "id": 70502,
        "name": "Gabriel Hernández (Mancinas)",
        "latitude": "23.81167000",
        "longitude": "-104.02444000",
        "country": "Mexico",
        "country_id": 142
    },
    {
        "id": 70503,
        "name": "Gabriel Leyva Solano (Zapotillo Dos)",
        "latitude": "25.88306000",
        "longitude": "-109.00917000",
        "country": "Mexico",
        "country_id": 142
    },
    {
        "id": 70504,
        "name": "Gabriel Leyva Velázquez",
        "latitude": "25.79111000",
        "longitude": "-108.56333000",
        "country": "Mexico",
        "country_id": 142
    },
    {
        "id": 11910,
        "name": "Gabriel Monteiro",
        "latitude": "-21.49989000",
        "longitude": "-50.56997000",
        "country": "Brazil",
        "country_id": 31
    },
    {
        "id": 9328,
        "name": "Gabrovo",
        "latitude": "42.87472000",
        "longitude": "25.33417000",
        "country": "Bulgaria",
        "country_id": 34
    },
    {
        "id": 144938,
        "name": "Gabuyan",
        "latitude": "7.60805556",
        "longitude": "125.66888889",
        "country": "Philippines",
        "country_id": 174
    },
    {
        "id": 144173,
        "name": "Gabuyan",
        "latitude": "7.60805556",
        "longitude": "125.66888889",
        "country": "Philippines",
        "country_id": 174
    },
    {
        "id": 82550,
        "name": "Gabuyan",
        "latitude": "7.60806000",
        "longitude": "125.66889000",
        "country": "Philippines",
        "country_id": 174
    },
    {
        "id": 138771,
        "name": "Gaby",
        "latitude": "45.71300000",
        "longitude": "7.88224000",
        "country": "Italy",
        "country_id": 107
    },
    {
        "id": 106952,
        "name": "Gabès",
        "latitude": "33.88146000",
        "longitude": "10.09820000",
        "country": "Tunisia",
        "country_id": 224
    },
    {
        "id": 53817,
        "name": "Gabú",
        "latitude": "12.28000000",
        "longitude": "-14.22222000",
        "country": "Guinea-Bissau",
        "country_id": 93
    },
    {
        "id": 104389,
        "name": "Gabčíkovo",
        "latitude": "47.89211000",
        "longitude": "17.57884000",
        "country": "Slovakia",
        "country_id": 200
    },
    {
        "id": 20870,
        "name": "Gachala",
        "latitude": "4.66667000",
        "longitude": "-73.50000000",
        "country": "Colombia",
        "country_id": 48
    },
    {
        "id": 20872,
        "name": "Gachancipá",
        "latitude": "4.99111000",
        "longitude": "-73.87154000",
        "country": "Colombia",
        "country_id": 48
    },
    {
        "id": 20873,
        "name": "Gachantivá",
        "latitude": "5.74417000",
        "longitude": "-73.54253000",
        "country": "Colombia",
        "country_id": 48
    },
    {
        "id": 25342,
        "name": "Gachenbach",
        "latitude": "48.50000000",
        "longitude": "11.23333000",
        "country": "Germany",
        "country_id": 82
    },
    {
        "id": 20874,
        "name": "Gachetá",
        "latitude": "4.87104000",
        "longitude": "-73.61730000",
        "country": "Colombia",
        "country_id": 48
    },
    {
        "id": 17818,
        "name": "Gachnang",
        "latitude": "47.53935000",
        "longitude": "8.85311000",
        "country": "Switzerland",
        "country_id": 214
    },
    {
        "id": 134878,
        "name": "Gachsaran",
        "latitude": "30.33333000",
        "longitude": "50.75000000",
        "country": "Iran",
        "country_id": 103
    },
    {
        "id": 70505,
        "name": "Gachupines",
        "latitude": "21.76259000",
        "longitude": "-101.56247000",
        "country": "Mexico",
        "country_id": 142
    },
    {
        "id": 8259,
        "name": "Gacko",
        "latitude": "43.16722000",
        "longitude": "18.53528000",
        "country": "Bosnia and Herzegovina",
        "country_id": 28
    },
    {
        "id": 42010,
        "name": "Gacé",
        "latitude": "48.79344000",
        "longitude": "0.29624000",
        "country": "France",
        "country_id": 75
    },
    {
        "id": 131884,
        "name": "Gadag",
        "latitude": "15.49835000",
        "longitude": "75.65187000",
        "country": "India",
        "country_id": 101
    },
    {
        "id": 131885,
        "name": "Gadag-Betageri",
        "latitude": "15.41670000",
        "longitude": "75.61670000",
        "country": "India",
        "country_id": 101
    },
    {
        "id": 105863,
        "name": "Gadaley",
        "latitude": "54.40318000",
        "longitude": "100.74093000",
        "country": "Ukraine",
        "country_id": 230
    },
    {
        "id": 85442,
        "name": "Gadani",
        "latitude": "25.11879000",
        "longitude": "66.73219000",
        "country": "Pakistan",
        "country_id": 167
    },
    {
        "id": 132043,
        "name": "Gadarwara",
        "latitude": "22.92350000",
        "longitude": "78.78490000",
        "country": "India",
        "country_id": 101
    },
    {
        "id": 131886,
        "name": "Gadchiroli",
        "latitude": "19.80000000",
        "longitude": "80.20000000",
        "country": "India",
        "country_id": 101
    },
    {
        "id": 131887,
        "name": "Gaddi Annaram",
        "latitude": "17.36687000",
        "longitude": "78.52420000",
        "country": "India",
        "country_id": 101
    },
    {
        "id": 25343,
        "name": "Gadebusch",
        "latitude": "53.70137000",
        "longitude": "11.11676000",
        "country": "Germany",
        "country_id": 82
    },
    {
        "id": 138772,
        "name": "Gadesco-Pieve Delmona",
        "latitude": "45.15767000",
        "longitude": "10.11567000",
        "country": "Italy",
        "country_id": 107
    },
    {
        "id": 66156,
        "name": "Gadette",
        "latitude": "13.95937000",
        "longitude": "-60.91029000",
        "country": "Saint Lucia",
        "country_id": 186
    },
    {
        "id": 131888,
        "name": "Gadhada",
        "latitude": "21.96957000",
        "longitude": "71.57828000",
        "country": "India",
        "country_id": 101
    },
    {
        "id": 25344,
        "name": "Gadheim",
        "latitude": "49.84584000",
        "longitude": "9.90566000",
        "country": "Germany",
        "country_id": 82
    },
    {
        "id": 131889,
        "name": "Gadhinglaj",
        "latitude": "16.22291000",
        "longitude": "74.35010000",
        "country": "India",
        "country_id": 101
    },
    {
        "id": 11911,
        "name": "Gado Bravo",
        "latitude": "-7.59984000",
        "longitude": "-35.81967000",
        "country": "Brazil",
        "country_id": 31
    },
    {
        "id": 138773,
        "name": "Gadoni",
        "latitude": "39.91388000",
        "longitude": "9.18560000",
        "country": "Italy",
        "country_id": 107
    },
    {
        "id": 117004,
        "name": "Gadsden",
        "latitude": "34.01434000",
        "longitude": "-86.00639000",
        "country": "United States",
        "country_id": 233
    },
    {
        "id": 117005,
        "name": "Gadsden",
        "latitude": "33.84571000",
        "longitude": "-80.76592000",
        "country": "United States",
        "country_id": 233
    },
    {
        "id": 117006,
        "name": "Gadsden County",
        "latitude": "30.57947000",
        "longitude": "-84.61360000",
        "country": "United States",
        "country_id": 233
    },
    {
        "id": 145196,
        "name": "Gadu",
        "latitude": "17.62916667",
        "longitude": "121.61055556",
        "country": "Philippines",
        "country_id": 174
    },
    {
        "id": 82551,
        "name": "Gadu",
        "latitude": "17.62920000",
        "longitude": "121.61050000",
        "country": "Philippines",
        "country_id": 174
    },
    {
        "id": 144693,
        "name": "Gadung",
        "latitude": "6.80250000",
        "longitude": "124.02000000",
        "country": "Philippines",
        "country_id": 174
    },
    {
        "id": 82552,
        "name": "Gadung",
        "latitude": "6.80250000",
        "longitude": "124.02000000",
        "country": "Philippines",
        "country_id": 174
    },
    {
        "id": 131890,
        "name": "Gadwal",
        "latitude": "16.23504000",
        "longitude": "77.79556000",
        "country": "India",
        "country_id": 101
    },
    {
        "id": 98445,
        "name": "Gadzhiyevo",
        "latitude": "69.25506000",
        "longitude": "33.33616000",
        "country": "Russia",
        "country_id": 182
    },
    {
        "id": 49619,
        "name": "Gaerwen",
        "latitude": "53.22112000",
        "longitude": "-4.27362000",
        "country": "United Kingdom",
        "country_id": 232
    },
    {
        "id": 138774,
        "name": "Gaeta",
        "latitude": "41.21408000",
        "longitude": "13.57082000",
        "country": "Italy",
        "country_id": 107
    },
    {
        "id": 89203,
        "name": "Gafanha da Encarnação",
        "latitude": "40.61806000",
        "longitude": "-8.73303000",
        "country": "Portugal",
        "country_id": 177
    },
    {
        "id": 89204,
        "name": "Gafanha da Nazaré",
        "latitude": "40.63621000",
        "longitude": "-8.71338000",
        "country": "Portugal",
        "country_id": 177
    },
    {
        "id": 8493,
        "name": "Gafargaon",
        "latitude": "24.43200000",
        "longitude": "90.55850000",
        "country": "Bangladesh",
        "country_id": 19
    },
    {
        "id": 117007,
        "name": "Gaffney",
        "latitude": "35.07179000",
        "longitude": "-81.64982000",
        "country": "United States",
        "country_id": 233
    },
    {
        "id": 2042,
        "name": "Gaflenz",
        "latitude": "47.89511000",
        "longitude": "14.72477000",
        "country": "Austria",
        "country_id": 15
    },
    {
        "id": 106953,
        "name": "Gafour",
        "latitude": "36.32045000",
        "longitude": "9.32424000",
        "country": "Tunisia",
        "country_id": 224
    },
    {
        "id": 106954,
        "name": "Gafsa",
        "latitude": "34.42500000",
        "longitude": "8.78417000",
        "country": "Tunisia",
        "country_id": 224
    },
    {
        "id": 76872,
        "name": "Gagarawa",
        "latitude": "12.40848000",
        "longitude": "9.52881000",
        "country": "Nigeria",
        "country_id": 161
    },
    {
        "id": 384,
        "name": "Gagarin",
        "latitude": "40.54026000",
        "longitude": "44.86962000",
        "country": "Armenia",
        "country_id": 12
    },
    {
        "id": 98446,
        "name": "Gagarin",
        "latitude": "55.55291000",
        "longitude": "34.99537000",
        "country": "Russia",
        "country_id": 182
    },
    {
        "id": 129924,
        "name": "Gagarin",
        "latitude": "40.66194000",
        "longitude": "68.17222000",
        "country": "Uzbekistan",
        "country_id": 236
    },
    {
        "id": 98447,
        "name": "Gagatli",
        "latitude": "42.80130000",
        "longitude": "46.29162000",
        "country": "Russia",
        "country_id": 182
    },
    {
        "id": 117008,
        "name": "Gage County",
        "latitude": "40.26193000",
        "longitude": "-96.68944000",
        "country": "United States",
        "country_id": 233
    },
    {
        "id": 117009,
        "name": "Gage Park",
        "latitude": "41.79503000",
        "longitude": "-87.69616000",
        "country": "United States",
        "country_id": 233
    },
    {
        "id": 5297,
        "name": "Gagebrook",
        "latitude": "-42.74770000",
        "longitude": "147.26984000",
        "country": "Australia",
        "country_id": 14
    },
    {
        "id": 77680,
        "name": "Gageldonk",
        "latitude": "51.60167000",
        "longitude": "4.73889000",
        "country": "Netherlands",
        "country_id": 156
    },
    {
        "id": 117010,
        "name": "Gages Lake",
        "latitude": "42.35169000",
        "longitude": "-87.98258000",
        "country": "United States",
        "country_id": 233
    },
    {
        "id": 25345,
        "name": "Gaggenau",
        "latitude": "48.80000000",
        "longitude": "8.33333000",
        "country": "Germany",
        "country_id": 82
    },
    {
        "id": 138775,
        "name": "Gaggi",
        "latitude": "37.85995000",
        "longitude": "15.22126000",
        "country": "Italy",
        "country_id": 107
    },
    {
        "id": 138776,
        "name": "Gaggiano",
        "latitude": "45.40484000",
        "longitude": "9.03488000",
        "country": "Italy",
        "country_id": 107
    },
    {
        "id": 138777,
        "name": "Gaggino",
        "latitude": "45.80787000",
        "longitude": "8.96427000",
        "country": "Italy",
        "country_id": 107
    },
    {
        "id": 138778,
        "name": "Gaggio",
        "latitude": "44.63458000",
        "longitude": "11.01334000",
        "country": "Italy",
        "country_id": 107
    },
    {
        "id": 138779,
        "name": "Gaggio Montano",
        "latitude": "44.19583000",
        "longitude": "10.93518000",
        "country": "Italy",
        "country_id": 107
    },
    {
        "id": 39165,
        "name": "Gagil Municipality",
        "latitude": "9.54722000",
        "longitude": "138.19028000",
        "country": "Micronesia",
        "country_id": 143
    },
    {
        "id": 98448,
        "name": "Gagino",
        "latitude": "55.23142000",
        "longitude": "45.03386000",
        "country": "Russia",
        "country_id": 182
    },
    {
        "id": 138780,
        "name": "Gaglianico",
        "latitude": "45.53718000",
        "longitude": "8.07839000",
        "country": "Italy",
        "country_id": 107
    },
    {
        "id": 138781,
        "name": "Gagliano Aterno",
        "latitude": "42.12598000",
        "longitude": "13.70023000",
        "country": "Italy",
        "country_id": 107
    },
    {
        "id": 138782,
        "name": "Gagliano Castelferrato",
        "latitude": "37.70967000",
        "longitude": "14.53524000",
        "country": "Italy",
        "country_id": 107
    },
    {
        "id": 138783,
        "name": "Gagliano del Capo",
        "latitude": "39.84323000",
        "longitude": "18.36962000",
        "country": "Italy",
        "country_id": 107
    },
    {
        "id": 138784,
        "name": "Gagliato",
        "latitude": "38.67578000",
        "longitude": "16.46061000",
        "country": "Italy",
        "country_id": 107
    },
    {
        "id": 138785,
        "name": "Gagliole",
        "latitude": "43.23812000",
        "longitude": "13.06782000",
        "country": "Italy",
        "country_id": 107
    },
    {
        "id": 42011,
        "name": "Gagnac-sur-Garonne",
        "latitude": "43.69990000",
        "longitude": "1.37535000",
        "country": "France",
        "country_id": 75
    },
    {
        "id": 103197,
        "name": "Gagnef",
        "latitude": "60.59856000",
        "longitude": "15.07745000",
        "country": "Sweden",
        "country_id": 213
    },
    {
        "id": 18899,
        "name": "Gagnoa",
        "latitude": "6.13193000",
        "longitude": "-5.95060000",
        "country": "Cote D'Ivoire (Ivory Coast)",
        "country_id": 54
    },
    {
        "id": 42012,
        "name": "Gagny",
        "latitude": "48.88333000",
        "longitude": "2.53333000",
        "country": "France",
        "country_id": 75
    },
    {
        "id": 143415,
        "name": "Gagos",
        "latitude": "40.58388889",
        "longitude": "-7.11472222",
        "country": "Portugal",
        "country_id": 177
    },
    {
        "id": 52065,
        "name": "Gagra",
        "latitude": "43.27858000",
        "longitude": "40.27124000",
        "country": "Georgia",
        "country_id": 81
    },
    {
        "id": 131891,
        "name": "Gagret",
        "latitude": "31.65846000",
        "longitude": "76.06144000",
        "country": "India",
        "country_id": 101
    },
    {
        "id": 141334,
        "name": "Gahanna",
        "latitude": "40.01923000",
        "longitude": "-82.87934000",
        "country": "United States",
        "country_id": 233
    },
    {
        "id": 147471,
        "name": "Gahlon",
        "latitude": "26.53333333",
        "longitude": "79.96666667",
        "country": "India",
        "country_id": 101
    },
    {
        "id": 147472,
        "name": "Gahmar",
        "latitude": "25.49700000",
        "longitude": "83.82200000",
        "country": "India",
        "country_id": 101
    },
    {
        "id": 150409,
        "name": "Gahru",
        "latitude": "32.00802020",
        "longitude": "50.87719190",
        "country": "Iran",
        "country_id": 103
    },
    {
        "id": 150814,
        "name": "Gahvareh",
        "latitude": "34.34416220",
        "longitude": "46.41101360",
        "country": "Iran",
        "country_id": 103
    },
    {
        "id": 152172,
        "name": "Gaianes",
        "latitude": "0.00000000",
        "longitude": "0.00000000",
        "country": "Spain",
        "country_id": 207
    },
    {
        "id": 138786,
        "name": "Gaiano",
        "latitude": "44.72391000",
        "longitude": "10.17267000",
        "country": "Italy",
        "country_id": 107
    },
    {
        "id": 138787,
        "name": "Gaiarine",
        "latitude": "45.88083000",
        "longitude": "12.48142000",
        "country": "Italy",
        "country_id": 107
    },
    {
        "id": 138788,
        "name": "Gaiba",
        "latitude": "44.94573000",
        "longitude": "11.48087000",
        "country": "Italy",
        "country_id": 107
    },
    {
        "id": 8494,
        "name": "Gaibandha",
        "latitude": "25.25000000",
        "longitude": "89.50000000",
        "country": "Bangladesh",
        "country_id": 19
    },
    {
        "id": 138789,
        "name": "Gaibanella-Sant'Edigio",
        "latitude": "44.76667000",
        "longitude": "11.65000000",
        "country": "Italy",
        "country_id": 107
    },
    {
        "id": 25346,
        "name": "Gaiberg",
        "latitude": "49.36639000",
        "longitude": "8.74972000",
        "country": "Germany",
        "country_id": 82
    },
    {
        "id": 34370,
        "name": "Gaibiel",
        "latitude": "39.93333000",
        "longitude": "-0.48333000",
        "country": "Spain",
        "country_id": 207
    },
    {
        "id": 25347,
        "name": "Gaienhofen",
        "latitude": "47.68333000",
        "longitude": "8.98333000",
        "country": "Germany",
        "country_id": 82
    },
    {
        "id": 65317,
        "name": "Gaigeturi",
        "latitude": "33.46444000",
        "longitude": "126.31833000",
        "country": "South Korea",
        "country_id": 116
    },
    {
        "id": 141939,
        "name": "Gaighata community development block",
        "latitude": "22.93000000",
        "longitude": "88.73000000",
        "country": "India",
        "country_id": 101
    },
    {
        "id": 117011,
        "name": "Gail",
        "latitude": "32.77038000",
        "longitude": "-101.44541000",
        "country": "United States",
        "country_id": 233
    },
    {
        "id": 25348,
        "name": "Gaildorf",
        "latitude": "49.00027000",
        "longitude": "9.76953000",
        "country": "Germany",
        "country_id": 82
    },
    {
        "id": 5298,
        "name": "Gailes",
        "latitude": "-27.61133000",
        "longitude": "152.91320000",
        "country": "Australia",
        "country_id": 14
    },
    {
        "id": 25349,
        "name": "Gailingen",
        "latitude": "47.69711000",
        "longitude": "8.75567000",
        "country": "Germany",
        "country_id": 82
    },
    {
        "id": 2043,
        "name": "Gailitz",
        "latitude": "46.56083000",
        "longitude": "13.70444000",
        "country": "Austria",
        "country_id": 15
    },
    {
        "id": 42013,
        "name": "Gaillac",
        "latitude": "43.90160000",
        "longitude": "1.89686000",
        "country": "France",
        "country_id": 75
    },
    {
        "id": 42014,
        "name": "Gaillac-Toulza",
        "latitude": "43.25536000",
        "longitude": "1.47141000",
        "country": "France",
        "country_id": 75
    },
    {
        "id": 42015,
        "name": "Gaillan-en-Médoc",
        "latitude": "45.32133000",
        "longitude": "-0.95794000",
        "country": "France",
        "country_id": 75
    },
    {
        "id": 42016,
        "name": "Gaillard",
        "latitude": "46.18530000",
        "longitude": "6.20693000",
        "country": "France",
        "country_id": 75
    },
    {
        "id": 42017,
        "name": "Gaillefontaine",
        "latitude": "49.65371000",
        "longitude": "1.61547000",
        "country": "France",
        "country_id": 75
    },
    {
        "id": 57255,
        "name": "Gaillimh",
        "latitude": "53.27194000",
        "longitude": "-9.04889000",
        "country": "Ireland",
        "country_id": 105
    },
    {
        "id": 42018,
        "name": "Gaillon",
        "latitude": "49.16104000",
        "longitude": "1.34016000",
        "country": "France",
        "country_id": 75
    },
    {
        "id": 25350,
        "name": "Gaimersheim",
        "latitude": "48.80705000",
        "longitude": "11.36801000",
        "country": "Germany",
        "country_id": 82
    },
    {
        "id": 1087,
        "name": "Gaimán",
        "latitude": "-43.28970000",
        "longitude": "-65.49290000",
        "country": "Argentina",
        "country_id": 11
    },
    {
        "id": 117012,
        "name": "Gaines County",
        "latitude": "32.74073000",
        "longitude": "-102.63518000",
        "country": "United States",
        "country_id": 233
    },
    {
        "id": 117013,
        "name": "Gainesboro",
        "latitude": "36.35561000",
        "longitude": "-85.65887000",
        "country": "United States",
        "country_id": 233
    },
    {
        "id": 117014,
        "name": "Gainesville",
        "latitude": "29.65163000",
        "longitude": "-82.32483000",
        "country": "United States",
        "country_id": 233
    },
    {
        "id": 117015,
        "name": "Gainesville",
        "latitude": "34.29788000",
        "longitude": "-83.82407000",
        "country": "United States",
        "country_id": 233
    },
    {
        "id": 117016,
        "name": "Gainesville",
        "latitude": "36.60312000",
        "longitude": "-92.42822000",
        "country": "United States",
        "country_id": 233
    },
    {
        "id": 117017,
        "name": "Gainesville",
        "latitude": "33.62594000",
        "longitude": "-97.13335000",
        "country": "United States",
        "country_id": 233
    },
    {
        "id": 117018,
        "name": "Gainesville",
        "latitude": "38.79567000",
        "longitude": "-77.61388000",
        "country": "United States",
        "country_id": 233
    },
    {
        "id": 2044,
        "name": "Gainfarn",
        "latitude": "47.96280000",
        "longitude": "16.19368000",
        "country": "Austria",
        "country_id": 15
    },
    {
        "id": 49620,
        "name": "Gainford",
        "latitude": "54.54718000",
        "longitude": "-1.73601000",
        "country": "United Kingdom",
        "country_id": 232
    },
    {
        "id": 147473,
        "name": "Gaini",
        "latitude": "28.21000000",
        "longitude": "79.16000000",
        "country": "India",
        "country_id": 101
    },
    {
        "id": 42019,
        "name": "Gainneville",
        "latitude": "49.51845000",
        "longitude": "0.26164000",
        "country": "France",
        "country_id": 75
    },
    {
        "id": 49621,
        "name": "Gainsborough",
        "latitude": "53.38333000",
        "longitude": "-0.76667000",
        "country": "United Kingdom",
        "country_id": 232
    },
    {
        "id": 151331,
        "name": "Gaintza",
        "latitude": "0.00000000",
        "longitude": "0.00000000",
        "country": "Spain",
        "country_id": 207
    },
    {
        "id": 82553,
        "name": "Gainza",
        "latitude": "13.61650000",
        "longitude": "123.14190000",
        "country": "Philippines",
        "country_id": 174
    },
    {
        "id": 138790,
        "name": "Gaiola",
        "latitude": "44.33554000",
        "longitude": "7.40896000",
        "country": "Italy",
        "country_id": 107
    },
    {
        "id": 138791,
        "name": "Gaiole in Chianti",
        "latitude": "43.46697000",
        "longitude": "11.43386000",
        "country": "Italy",
        "country_id": 107
    },
    {
        "id": 141940,
        "name": "Gairkata",
        "latitude": "26.68000000",
        "longitude": "89.03000000",
        "country": "India",
        "country_id": 101
    },
    {
        "id": 138792,
        "name": "Gairo Sant'Elena",
        "latitude": "39.84972000",
        "longitude": "9.50472000",
        "country": "Italy",
        "country_id": 107
    },
    {
        "id": 138793,
        "name": "Gais",
        "latitude": "46.83658000",
        "longitude": "11.94931000",
        "country": "Italy",
        "country_id": 107
    },
    {
        "id": 17819,
        "name": "Gais",
        "latitude": "47.36150000",
        "longitude": "9.45356000",
        "country": "Switzerland",
        "country_id": 214
    },
    {
        "id": 117019,
        "name": "Gaithersburg",
        "latitude": "39.14344000",
        "longitude": "-77.20137000",
        "country": "United States",
        "country_id": 233
    },
    {
        "id": 19533,
        "name": "Gaizhou",
        "latitude": "40.39417000",
        "longitude": "122.36861000",
        "country": "China",
        "country_id": 45
    },
    {
        "id": 25351,
        "name": "Gaißach",
        "latitude": "47.75000000",
        "longitude": "11.58333000",
        "country": "Germany",
        "country_id": 82
    },
    {
        "id": 2045,
        "name": "Gaißau",
        "latitude": "47.46667000",
        "longitude": "9.60000000",
        "country": "Austria",
        "country_id": 15
    },
    {
        "id": 151517,
        "name": "Gaià",
        "latitude": "0.00000000",
        "longitude": "0.00000000",
        "country": "Spain",
        "country_id": 207
    },
    {
        "id": 34371,
        "name": "Gajanejos",
        "latitude": "40.84147000",
        "longitude": "-2.89229000",
        "country": "Spain",
        "country_id": 207
    },
    {
        "id": 131892,
        "name": "Gajapati",
        "latitude": "18.91000000",
        "longitude": "84.20000000",
        "country": "India",
        "country_id": 101
    },
    {
        "id": 34372,
        "name": "Gajates",
        "latitude": "40.78254000",
        "longitude": "-5.36506000",
        "country": "Spain",
        "country_id": 207
    },
    {
        "id": 131893,
        "name": "Gajendragarh",
        "latitude": "15.73628000",
        "longitude": "75.96976000",
        "country": "India",
        "country_id": 101
    },
    {
        "id": 131894,
        "name": "Gajraula",
        "latitude": "28.84570000",
        "longitude": "78.23960000",
        "country": "India",
        "country_id": 101
    },
    {
        "id": 131895,
        "name": "Gajuwaka",
        "latitude": "17.70000000",
        "longitude": "83.21667000",
        "country": "India",
        "country_id": 101
    },
    {
        "id": 76873,
        "name": "Gakem",
        "latitude": "6.76963000",
        "longitude": "8.99120000",
        "country": "Nigeria",
        "country_id": 161
    },
    {
        "id": 97206,
        "name": "Gakovo",
        "latitude": "45.90078000",
        "longitude": "19.06138000",
        "country": "Serbia",
        "country_id": 196
    },
    {
        "id": 54486,
        "name": "Gala",
        "latitude": "43.71500000",
        "longitude": "16.72694000",
        "country": "Croatia",
        "country_id": 55
    },
    {
        "id": 146146,
        "name": "Galagedara",
        "latitude": "7.36833300",
        "longitude": "80.52750000",
        "country": "Sri Lanka",
        "country_id": 208
    },
    {
        "id": 104390,
        "name": "Galanta",
        "latitude": "48.19001000",
        "longitude": "17.72747000",
        "country": "Slovakia",
        "country_id": 200
    },
    {
        "id": 129925,
        "name": "Galaosiyo",
        "latitude": "39.85778000",
        "longitude": "64.44833000",
        "country": "Uzbekistan",
        "country_id": 236
    },
    {
        "id": 20876,
        "name": "Galapa",
        "latitude": "10.89790000",
        "longitude": "-74.88700000",
        "country": "Colombia",
        "country_id": 48
    },
    {
        "id": 34373,
        "name": "Galapagar",
        "latitude": "40.57830000",
        "longitude": "-4.00426000",
        "country": "Spain",
        "country_id": 207
    },
    {
        "id": 109068,
        "name": "Galappo",
        "latitude": "-4.26667000",
        "longitude": "35.85000000",
        "country": "Tanzania",
        "country_id": 218
    },
    {
        "id": 34374,
        "name": "Galar",
        "latitude": "42.76147000",
        "longitude": "-1.69881000",
        "country": "Spain",
        "country_id": 207
    },
    {
        "id": 34375,
        "name": "Galaroza",
        "latitude": "37.92864000",
        "longitude": "-6.70730000",
        "country": "Spain",
        "country_id": 207
    },
    {
        "id": 49622,
        "name": "Galashiels",
        "latitude": "55.61458000",
        "longitude": "-2.80695000",
        "country": "United Kingdom",
        "country_id": 232
    },
    {
        "id": 98449,
        "name": "Galashki",
        "latitude": "43.11740000",
        "longitude": "44.99055000",
        "country": "Russia",
        "country_id": 182
    },
    {
        "id": 143064,
        "name": "Galateo",
        "latitude": "18.36250000",
        "longitude": "-66.25888889",
        "country": "United States",
        "country_id": 233
    },
    {
        "id": 138794,
        "name": "Galati Mamertino",
        "latitude": "38.03176000",
        "longitude": "14.77145000",
        "country": "Italy",
        "country_id": 107
    },
    {
        "id": 138795,
        "name": "Galatina",
        "latitude": "40.17416000",
        "longitude": "18.17032000",
        "country": "Italy",
        "country_id": 107
    },
    {
        "id": 52620,
        "name": "Galatiní",
        "latitude": "40.31966000",
        "longitude": "21.55148000",
        "country": "Greece",
        "country_id": 85
    },
    {
        "id": 138796,
        "name": "Galatone",
        "latitude": "40.14673000",
        "longitude": "18.06937000",
        "country": "Italy",
        "country_id": 107
    },
    {
        "id": 138797,
        "name": "Galatro",
        "latitude": "38.46067000",
        "longitude": "16.10840000",
        "country": "Italy",
        "country_id": 107
    },
    {
        "id": 52621,
        "name": "Galatádes",
        "latitude": "40.75590000",
        "longitude": "22.28062000",
        "country": "Greece",
        "country_id": 85
    },
    {
        "id": 52622,
        "name": "Galatás",
        "latitude": "38.35742000",
        "longitude": "21.56222000",
        "country": "Greece",
        "country_id": 85
    },
    {
        "id": 52623,
        "name": "Galatás",
        "latitude": "35.49864000",
        "longitude": "23.96341000",
        "country": "Greece",
        "country_id": 85
    },
    {
        "id": 52624,
        "name": "Galatás",
        "latitude": "37.49618000",
        "longitude": "23.44886000",
        "country": "Greece",
        "country_id": 85
    },
    {
        "id": 117020,
        "name": "Galax",
        "latitude": "36.66124000",
        "longitude": "-80.92397000",
        "country": "United States",
        "country_id": 233
    },
    {
        "id": 142535,
        "name": "Galaxia Bonito Jalisco",
        "latitude": "20.50500000",
        "longitude": "-103.20472000",
        "country": "Mexico",
        "country_id": 142
    },
    {
        "id": 70506,
        "name": "Galaxia la Calera",
        "latitude": "18.99900000",
        "longitude": "-98.15250000",
        "country": "Mexico",
        "country_id": 142
    },
    {
        "id": 142536,
        "name": "Galaxia la Noria",
        "latitude": "20.45722000",
        "longitude": "-103.41889000",
        "country": "Mexico",
        "country_id": 142
    },
    {
        "id": 70507,
        "name": "Galaxias Toluca",
        "latitude": "19.39806000",
        "longitude": "-99.65000000",
        "country": "Mexico",
        "country_id": 142
    },
    {
        "id": 52625,
        "name": "Galaxídhion",
        "latitude": "38.38067000",
        "longitude": "22.38001000",
        "country": "Greece",
        "country_id": 85
    },
    {
        "id": 67124,
        "name": "Galaz",
        "latitude": "34.54424000",
        "longitude": "-4.80355000",
        "country": "Morocco",
        "country_id": 149
    },
    {
        "id": 94272,
        "name": "Galaţi",
        "latitude": "45.43687000",
        "longitude": "28.05028000",
        "country": "Romania",
        "country_id": 181
    },
    {
        "id": 94273,
        "name": "Galaţii Bistriţei",
        "latitude": "46.98333000",
        "longitude": "24.40000000",
        "country": "Romania",
        "country_id": 181
    },
    {
        "id": 34376,
        "name": "Galbarros",
        "latitude": "42.52729000",
        "longitude": "-3.43827000",
        "country": "Spain",
        "country_id": 207
    },
    {
        "id": 94274,
        "name": "Galbeni",
        "latitude": "46.45661000",
        "longitude": "26.94664000",
        "country": "Romania",
        "country_id": 181
    },
    {
        "id": 94275,
        "name": "Galbenu",
        "latitude": "45.21667000",
        "longitude": "27.16667000",
        "country": "Romania",
        "country_id": 181
    },
    {
        "id": 138798,
        "name": "Galbiate",
        "latitude": "45.81635000",
        "longitude": "9.37902000",
        "country": "Italy",
        "country_id": 107
    },
    {
        "id": 34377,
        "name": "Galbárruli",
        "latitude": "42.62181000",
        "longitude": "-2.96087000",
        "country": "Spain",
        "country_id": 207
    },
    {
        "id": 94276,
        "name": "Galda de Jos",
        "latitude": "46.18333000",
        "longitude": "23.61667000",
        "country": "Romania",
        "country_id": 181
    },
    {
        "id": 34378,
        "name": "Galdakao",
        "latitude": "43.23073000",
        "longitude": "-2.84290000",
        "country": "Spain",
        "country_id": 207
    },
    {
        "id": 151279,
        "name": "Galdames",
        "latitude": "0.00000000",
        "longitude": "0.00000000",
        "country": "Spain",
        "country_id": 207
    },
    {
        "id": 70508,
        "name": "Galeana",
        "latitude": "18.63810000",
        "longitude": "-99.21240000",
        "country": "Mexico",
        "country_id": 142
    },
    {
        "id": 70509,
        "name": "Galeana",
        "latitude": "24.82455000",
        "longitude": "-100.07601000",
        "country": "Mexico",
        "country_id": 142
    },
    {
        "id": 70510,
        "name": "Galeana",
        "latitude": "20.03585000",
        "longitude": "-101.57150000",
        "country": "Mexico",
        "country_id": 142
    },
    {
        "id": 70511,
        "name": "Galeana",
        "latitude": "30.10916000",
        "longitude": "-107.63167000",
        "country": "Mexico",
        "country_id": 142
    },
    {
        "id": 138799,
        "name": "Galeata",
        "latitude": "43.99607000",
        "longitude": "11.91057000",
        "country": "Italy",
        "country_id": 107
    },
    {
        "id": 70512,
        "name": "Galecio Narcia",
        "latitude": "16.58820000",
        "longitude": "-93.02052000",
        "country": "Mexico",
        "country_id": 142
    },
    {
        "id": 89205,
        "name": "Galegos",
        "latitude": "41.56268000",
        "longitude": "-8.57204000",
        "country": "Portugal",
        "country_id": 177
    },
    {
        "id": 150703,
        "name": "Galehdar",
        "latitude": "27.65744580",
        "longitude": "52.62983260",
        "country": "Iran",
        "country_id": 103
    },
    {
        "id": 117021,
        "name": "Galena",
        "latitude": "38.35173000",
        "longitude": "-85.94164000",
        "country": "United States",
        "country_id": 233
    },
    {
        "id": 117022,
        "name": "Galena",
        "latitude": "37.07590000",
        "longitude": "-94.63967000",
        "country": "United States",
        "country_id": 233
    },
    {
        "id": 117023,
        "name": "Galena",
        "latitude": "36.80534000",
        "longitude": "-93.46658000",
        "country": "United States",
        "country_id": 233
    },
    {
        "id": 117024,
        "name": "Galena",
        "latitude": "42.41667000",
        "longitude": "-90.42902000",
        "country": "United States",
        "country_id": 233
    },
    {
        "id": 117025,
        "name": "Galena Park",
        "latitude": "29.73356000",
        "longitude": "-95.23021000",
        "country": "United States",
        "country_id": 233
    },
    {
        "id": 34379,
        "name": "Galende",
        "latitude": "42.10440000",
        "longitude": "-6.66252000",
        "country": "Spain",
        "country_id": 207
    },
    {
        "id": 34380,
        "name": "Galera",
        "latitude": "37.74262000",
        "longitude": "-2.55175000",
        "country": "Spain",
        "country_id": 207
    },
    {
        "id": 151931,
        "name": "Galera",
        "latitude": "0.00000000",
        "longitude": "0.00000000",
        "country": "Spain",
        "country_id": 207
    },
    {
        "id": 70513,
        "name": "Galerade Panales",
        "latitude": "20.29452000",
        "longitude": "-100.81452000",
        "country": "Mexico",
        "country_id": 142
    },
    {
        "id": 20877,
        "name": "Galeras",
        "latitude": "9.16095000",
        "longitude": "-75.04811000",
        "country": "Colombia",
        "country_id": 48
    },
    {
        "id": 70514,
        "name": "Galeras",
        "latitude": "20.61759000",
        "longitude": "-100.15731000",
        "country": "Mexico",
        "country_id": 142
    },
    {
        "id": 117026,
        "name": "Gales Ferry",
        "latitude": "41.42982000",
        "longitude": "-72.08202000",
        "country": "United States",
        "country_id": 233
    },
    {
        "id": 117027,
        "name": "Galesburg",
        "latitude": "40.94782000",
        "longitude": "-90.37124000",
        "country": "United States",
        "country_id": 233
    },
    {
        "id": 117028,
        "name": "Galesburg",
        "latitude": "42.28865000",
        "longitude": "-85.41806000",
        "country": "United States",
        "country_id": 233
    },
    {
        "id": 56273,
        "name": "Galesong",
        "latitude": "-5.31660000",
        "longitude": "119.36610000",
        "country": "Indonesia",
        "country_id": 102
    },
    {
        "id": 117029,
        "name": "Galesville",
        "latitude": "44.08163000",
        "longitude": "-91.34904000",
        "country": "United States",
        "country_id": 233
    },
    {
        "id": 117030,
        "name": "Galeton",
        "latitude": "41.73312000",
        "longitude": "-77.64193000",
        "country": "United States",
        "country_id": 233
    },
    {
        "id": 117031,
        "name": "Galeville",
        "latitude": "43.09007000",
        "longitude": "-76.17298000",
        "country": "United States",
        "country_id": 233
    },
    {
        "id": 86280,
        "name": "Galewice",
        "latitude": "51.34471000",
        "longitude": "18.25756000",
        "country": "Poland",
        "country_id": 176
    },
    {
        "id": 138800,
        "name": "Galgagnano",
        "latitude": "45.35797000",
        "longitude": "9.44535000",
        "country": "Italy",
        "country_id": 107
    },
    {
        "id": 55444,
        "name": "Galgahévíz",
        "latitude": "47.61667000",
        "longitude": "19.56667000",
        "country": "Hungary",
        "country_id": 99
    },
    {
        "id": 55445,
        "name": "Galgamácsa",
        "latitude": "47.69562000",
        "longitude": "19.38724000",
        "country": "Hungary",
        "country_id": 99
    },
    {
        "id": 49623,
        "name": "Galgate",
        "latitude": "53.99362000",
        "longitude": "-2.79201000",
        "country": "United Kingdom",
        "country_id": 232
    },
    {
        "id": 42020,
        "name": "Galgon",
        "latitude": "44.98333000",
        "longitude": "-0.26667000",
        "country": "France",
        "country_id": 75
    },
    {
        "id": 146145,
        "name": "Galhinna",
        "latitude": "7.41614200",
        "longitude": "80.56884200",
        "country": "Sri Lanka",
        "country_id": 208
    },
    {
        "id": 52066,
        "name": "Gali",
        "latitude": "42.62655000",
        "longitude": "41.73808000",
        "country": "Georgia",
        "country_id": 81
    },
    {
        "id": 131896,
        "name": "Galiakot",
        "latitude": "23.51995000",
        "longitude": "74.02028000",
        "country": "India",
        "country_id": 101
    },
    {
        "id": 94277,
        "name": "Galicea",
        "latitude": "44.91667000",
        "longitude": "24.28333000",
        "country": "Romania",
        "country_id": 181
    },
    {
        "id": 94278,
        "name": "Galicea Mare",
        "latitude": "44.10000000",
        "longitude": "23.30000000",
        "country": "Romania",
        "country_id": 181
    },
    {
        "id": 98450,
        "name": "Galich",
        "latitude": "58.37884000",
        "longitude": "42.34633000",
        "country": "Russia",
        "country_id": 182
    },
    {
        "id": 98451,
        "name": "Galichskiy Rayon",
        "latitude": "58.33333000",
        "longitude": "42.25000000",
        "country": "Russia",
        "country_id": 182
    },
    {
        "id": 94279,
        "name": "Galiciuica",
        "latitude": "44.10324000",
        "longitude": "23.39067000",
        "country": "Romania",
        "country_id": 181
    },
    {
        "id": 134889,
        "name": "Galikesh",
        "latitude": "37.30000000",
        "longitude": "55.65000000",
        "country": "Iran",
        "country_id": 103
    },
    {
        "id": 34381,
        "name": "Galilea",
        "latitude": "42.34703000",
        "longitude": "-2.23605000",
        "country": "Spain",
        "country_id": 207
    },
    {
        "id": 11912,
        "name": "Galiléia",
        "latitude": "-18.86897000",
        "longitude": "-41.52503000",
        "country": "Brazil",
        "country_id": 31
    },
    {
        "id": 145926,
        "name": "Galimuyod",
        "latitude": "17.18333333",
        "longitude": "120.46666667",
        "country": "Philippines",
        "country_id": 174
    },
    {
        "id": 82554,
        "name": "Galimuyod",
        "latitude": "17.18444000",
        "longitude": "120.47194000",
        "country": "Philippines",
        "country_id": 174
    },
    {
        "id": 62578,
        "name": "Galina",
        "latitude": "18.40265000",
        "longitude": "-76.90041000",
        "country": "Jamaica",
        "country_id": 108
    },
    {
        "id": 70515,
        "name": "Galindo",
        "latitude": "20.39725000",
        "longitude": "-100.09840000",
        "country": "Mexico",
        "country_id": 142
    },
    {
        "id": 34382,
        "name": "Galindo y Perahuy",
        "latitude": "40.94397000",
        "longitude": "-5.87410000",
        "country": "Spain",
        "country_id": 207
    },
    {
        "id": 34383,
        "name": "Galinduste",
        "latitude": "40.66266000",
        "longitude": "-5.54003000",
        "country": "Spain",
        "country_id": 207
    },
    {
        "id": 11913,
        "name": "Galinhos",
        "latitude": "-5.12167000",
        "longitude": "-36.26313000",
        "country": "Brazil",
        "country_id": 31
    },
    {
        "id": 141335,
        "name": "Galion",
        "latitude": "40.73367000",
        "longitude": "-82.78990000",
        "country": "United States",
        "country_id": 233
    },
    {
        "id": 34384,
        "name": "Galisancho",
        "latitude": "40.74418000",
        "longitude": "-5.55471000",
        "country": "Spain",
        "country_id": 207
    },
    {
        "id": 34385,
        "name": "Galisteo",
        "latitude": "39.97642000",
        "longitude": "-6.26782000",
        "country": "Spain",
        "country_id": 207
    },
    {
        "id": 98452,
        "name": "Galitsy",
        "latitude": "56.17759000",
        "longitude": "42.84588000",
        "country": "Russia",
        "country_id": 182
    },
    {
        "id": 5299,
        "name": "Galiwinku",
        "latitude": "-12.02811000",
        "longitude": "135.56486000",
        "country": "Australia",
        "country_id": 14
    },
    {
        "id": 54487,
        "name": "Galižana",
        "latitude": "44.93167000",
        "longitude": "13.86861000",
        "country": "Croatia",
        "country_id": 55
    },
    {
        "id": 138801,
        "name": "Gallarate",
        "latitude": "45.66019000",
        "longitude": "8.79164000",
        "country": "Italy",
        "country_id": 107
    },
    {
        "id": 42021,
        "name": "Gallardon",
        "latitude": "48.52622000",
        "longitude": "1.69307000",
        "country": "France",
        "country_id": 75
    },
    {
        "id": 151350,
        "name": "Gallardos Los",
        "latitude": "0.00000000",
        "longitude": "0.00000000",
        "country": "Spain",
        "country_id": 207
    },
    {
        "id": 42022,
        "name": "Gallargues-le-Montueux",
        "latitude": "43.71667000",
        "longitude": "4.16667000",
        "country": "France",
        "country_id": 75
    },
    {
        "id": 117032,
        "name": "Gallatin",
        "latitude": "39.91445000",
        "longitude": "-93.96217000",
        "country": "United States",
        "country_id": 233
    },
    {
        "id": 117033,
        "name": "Gallatin",
        "latitude": "36.38838000",
        "longitude": "-86.44666000",
        "country": "United States",
        "country_id": 233
    },
    {
        "id": 117034,
        "name": "Gallatin County",
        "latitude": "37.76275000",
        "longitude": "-88.23050000",
        "country": "United States",
        "country_id": 233
    },
    {
        "id": 117035,
        "name": "Gallatin County",
        "latitude": "38.75687000",
        "longitude": "-84.85931000",
        "country": "United States",
        "country_id": 233
    },
    {
        "id": 117036,
        "name": "Gallatin County",
        "latitude": "45.54049000",
        "longitude": "-111.17035000",
        "country": "United States",
        "country_id": 233
    },
    {
        "id": 66468,
        "name": "Galle",
        "latitude": "6.04610000",
        "longitude": "80.21030000",
        "country": "Sri Lanka",
        "country_id": 208
    },
    {
        "id": 66469,
        "name": "Galle District",
        "latitude": "6.25000000",
        "longitude": "80.25000000",
        "country": "Sri Lanka",
        "country_id": 208
    },
    {
        "id": 152308,
        "name": "Gallega La",
        "latitude": "0.00000000",
        "longitude": "0.00000000",
        "country": "Spain",
        "country_id": 207
    },
    {
        "id": 34386,
        "name": "Gallegos",
        "latitude": "41.07508000",
        "longitude": "-3.78591000",
        "country": "Spain",
        "country_id": 207
    },
    {
        "id": 152717,
        "name": "Gallegos de Altamiros",
        "latitude": "0.00000000",
        "longitude": "0.00000000",
        "country": "Spain",
        "country_id": 207
    },
    {
        "id": 34387,
        "name": "Gallegos de Argañán",
        "latitude": "40.63146000",
        "longitude": "-6.70246000",
        "country": "Spain",
        "country_id": 207
    },
    {
        "id": 34388,
        "name": "Gallegos de Hornija",
        "latitude": "41.60980000",
        "longitude": "-5.09768000",
        "country": "Spain",
        "country_id": 207
    },
    {
        "id": 34389,
        "name": "Gallegos de Sobrinos",
        "latitude": "40.71693000",
        "longitude": "-5.11224000",
        "country": "Spain",
        "country_id": 207
    },
    {
        "id": 152527,
        "name": "Gallegos de Solmirón",
        "latitude": "0.00000000",
        "longitude": "0.00000000",
        "country": "Spain",
        "country_id": 207
    },
    {
        "id": 34390,
        "name": "Gallegos del Pan",
        "latitude": "41.59985000",
        "longitude": "-5.58117000",
        "country": "Spain",
        "country_id": 207
    },
    {
        "id": 34391,
        "name": "Gallegos del Río",
        "latitude": "41.73497000",
        "longitude": "-6.17435000",
        "country": "Spain",
        "country_id": 207
    },
    {
        "id": 52247,
        "name": "Galleh Manda",
        "latitude": "13.43333000",
        "longitude": "-14.78333000",
        "country": "Gambia The",
        "country_id": 80
    },
    {
        "id": 138802,
        "name": "Gallese",
        "latitude": "42.37376000",
        "longitude": "12.39646000",
        "country": "Italy",
        "country_id": 107
    },
    {
        "id": 141336,
        "name": "Gallia County",
        "latitude": "38.82467000",
        "longitude": "-82.31691000",
        "country": "United States",
        "country_id": 233
    },
    {
        "id": 138803,
        "name": "Galliano",
        "latitude": "44.01725000",
        "longitude": "11.29353000",
        "country": "Italy",
        "country_id": 107
    },
    {
        "id": 117037,
        "name": "Galliano",
        "latitude": "29.44216000",
        "longitude": "-90.29925000",
        "country": "United States",
        "country_id": 233
    },
    {
        "id": 138804,
        "name": "Galliate",
        "latitude": "45.47942000",
        "longitude": "8.69815000",
        "country": "Italy",
        "country_id": 107
    },
    {
        "id": 138805,
        "name": "Galliate Lombardo",
        "latitude": "45.78487000",
        "longitude": "8.77043000",
        "country": "Italy",
        "country_id": 107
    },
    {
        "id": 138806,
        "name": "Galliavola",
        "latitude": "45.09756000",
        "longitude": "8.81885000",
        "country": "Italy",
        "country_id": 107
    },
    {
        "id": 138807,
        "name": "Gallicano",
        "latitude": "44.05833000",
        "longitude": "10.44209000",
        "country": "Italy",
        "country_id": 107
    },
    {
        "id": 138808,
        "name": "Gallicano nel Lazio",
        "latitude": "41.86433000",
        "longitude": "12.83543000",
        "country": "Italy",
        "country_id": 107
    },
    {
        "id": 138809,
        "name": "Gallicchio",
        "latitude": "40.29232000",
        "longitude": "16.13561000",
        "country": "Italy",
        "country_id": 107
    },
    {
        "id": 138810,
        "name": "Galliera Veneta",
        "latitude": "45.66750000",
        "longitude": "11.82217000",
        "country": "Italy",
        "country_id": 107
    },
    {
        "id": 34392,
        "name": "Gallifa",
        "latitude": "41.69243000",
        "longitude": "2.11346000",
        "country": "Spain",
        "country_id": 207
    },
    {
        "id": 138811,
        "name": "Gallinaro",
        "latitude": "41.65502000",
        "longitude": "13.79799000",
        "country": "Italy",
        "country_id": 107
    },
    {
        "id": 34393,
        "name": "Gallinero de Cameros",
        "latitude": "42.17229000",
        "longitude": "-2.61793000",
        "country": "Spain",
        "country_id": 207
    },
    {
        "id": 138812,
        "name": "Gallio",
        "latitude": "45.88506000",
        "longitude": "11.53417000",
        "country": "Italy",
        "country_id": 107
    },
    {
        "id": 34394,
        "name": "Gallipienzo",
        "latitude": "42.52450000",
        "longitude": "-1.41115000",
        "country": "Spain",
        "country_id": 207
    },
    {
        "id": 153055,
        "name": "Gallipienzo/Galipentzu",
        "latitude": "0.00000000",
        "longitude": "0.00000000",
        "country": "Spain",
        "country_id": 207
    },
    {
        "id": 138813,
        "name": "Gallipoli",
        "latitude": "40.05594000",
        "longitude": "17.99088000",
        "country": "Italy",
        "country_id": 107
    },
    {
        "id": 141337,
        "name": "Gallipolis",
        "latitude": "38.80980000",
        "longitude": "-82.20237000",
        "country": "United States",
        "country_id": 233
    },
    {
        "id": 117038,
        "name": "Gallitzin",
        "latitude": "40.48229000",
        "longitude": "-78.55168000",
        "country": "United States",
        "country_id": 233
    },
    {
        "id": 2046,
        "name": "Gallizien",
        "latitude": "46.55000000",
        "longitude": "14.51667000",
        "country": "Austria",
        "country_id": 15
    },
    {
        "id": 2047,
        "name": "Gallmannsegg",
        "latitude": "47.18333000",
        "longitude": "15.06667000",
        "country": "Austria",
        "country_id": 15
    },
    {
        "id": 2048,
        "name": "Gallneukirchen",
        "latitude": "48.35363000",
        "longitude": "14.41604000",
        "country": "Austria",
        "country_id": 15
    },
    {
        "id": 138814,
        "name": "Gallo",
        "latitude": "44.73144000",
        "longitude": "11.55284000",
        "country": "Italy",
        "country_id": 107
    },
    {
        "id": 138815,
        "name": "Gallo",
        "latitude": "43.78636000",
        "longitude": "12.71334000",
        "country": "Italy",
        "country_id": 107
    },
    {
        "id": 138816,
        "name": "Gallo",
        "latitude": "41.46499000",
        "longitude": "14.22519000",
        "country": "Italy",
        "country_id": 107
    },
    {
        "id": 138817,
        "name": "Gallo Matese",
        "latitude": "41.46452000",
        "longitude": "14.22502000",
        "country": "Italy",
        "country_id": 107
    },
    {
        "id": 138818,
        "name": "Gallo-Tre Re-Mezzana Corti",
        "latitude": "45.12563000",
        "longitude": "9.12227000",
        "country": "Italy",
        "country_id": 107
    },
    {
        "id": 34395,
        "name": "Gallocanta",
        "latitude": "40.99624000",
        "longitude": "-1.50774000",
        "country": "Spain",
        "country_id": 207
    },
    {
        "id": 138819,
        "name": "Gallodoro",
        "latitude": "37.90206000",
        "longitude": "15.29359000",
        "country": "Italy",
        "country_id": 107
    },
    {
        "id": 2049,
        "name": "Gallspach",
        "latitude": "48.20992000",
        "longitude": "13.80981000",
        "country": "Austria",
        "country_id": 15
    },
    {
        "id": 138820,
        "name": "Galluccio",
        "latitude": "41.35232000",
        "longitude": "13.95372000",
        "country": "Italy",
        "country_id": 107
    },
    {
        "id": 42023,
        "name": "Galluis",
        "latitude": "48.79657000",
        "longitude": "1.79414000",
        "country": "France",
        "country_id": 75
    },
    {
        "id": 117039,
        "name": "Gallup",
        "latitude": "35.52808000",
        "longitude": "-108.74258000",
        "country": "United States",
        "country_id": 233
    },
    {
        "id": 34396,
        "name": "Gallur",
        "latitude": "41.86830000",
        "longitude": "-1.31577000",
        "country": "Spain",
        "country_id": 207
    },
    {
        "id": 25352,
        "name": "Gallus",
        "latitude": "50.10038000",
        "longitude": "8.62950000",
        "country": "Germany",
        "country_id": 82
    },
    {
        "id": 153056,
        "name": "Gallués/Galoze",
        "latitude": "0.00000000",
        "longitude": "0.00000000",
        "country": "Spain",
        "country_id": 207
    },
    {
        "id": 2050,
        "name": "Gallzein",
        "latitude": "47.36807000",
        "longitude": "11.77159000",
        "country": "Austria",
        "country_id": 15
    },
    {
        "id": 8773,
        "name": "Galmaarden",
        "latitude": "50.75389000",
        "longitude": "3.97121000",
        "country": "Belgium",
        "country_id": 22
    },
    {
        "id": 54488,
        "name": "Galovac",
        "latitude": "44.07139000",
        "longitude": "15.39333000",
        "country": "Croatia",
        "country_id": 55
    },
    {
        "id": 94280,
        "name": "Galoșpetreu",
        "latitude": "47.48345000",
        "longitude": "22.21730000",
        "country": "Romania",
        "country_id": 181
    },
    {
        "id": 5300,
        "name": "Galston",
        "latitude": "-33.65297000",
        "longitude": "151.04713000",
        "country": "Australia",
        "country_id": 14
    },
    {
        "id": 49624,
        "name": "Galston",
        "latitude": "55.60093000",
        "longitude": "-4.38172000",
        "country": "United Kingdom",
        "country_id": 232
    },
    {
        "id": 117040,
        "name": "Galt",
        "latitude": "38.25464000",
        "longitude": "-121.29995000",
        "country": "United States",
        "country_id": 233
    },
    {
        "id": 138821,
        "name": "Galta",
        "latitude": "45.39095000",
        "longitude": "12.02340000",
        "country": "Italy",
        "country_id": 107
    },
    {
        "id": 138822,
        "name": "Galtellì",
        "latitude": "40.38451000",
        "longitude": "9.61241000",
        "country": "Italy",
        "country_id": 107
    },
    {
        "id": 30663,
        "name": "Galten",
        "latitude": "56.15902000",
        "longitude": "9.91691000",
        "country": "Denmark",
        "country_id": 59
    },
    {
        "id": 2051,
        "name": "Galtür",
        "latitude": "46.96667000",
        "longitude": "10.18333000",
        "country": "Austria",
        "country_id": 15
    },
    {
        "id": 134879,
        "name": "Galugah",
        "latitude": "36.71667000",
        "longitude": "53.86667000",
        "country": "Iran",
        "country_id": 103
    },
    {
        "id": 138823,
        "name": "Galugnano",
        "latitude": "40.25601000",
        "longitude": "18.21473000",
        "country": "Italy",
        "country_id": 107
    },
    {
        "id": 117041,
        "name": "Galva",
        "latitude": "41.16754000",
        "longitude": "-90.04261000",
        "country": "United States",
        "country_id": 233
    },
    {
        "id": 148365,
        "name": "Galvarino",
        "latitude": "-38.40000000",
        "longitude": "-72.78333333",
        "country": "Chile",
        "country_id": 44
    },
    {
        "id": 34397,
        "name": "Galve",
        "latitude": "40.65591000",
        "longitude": "-0.88217000",
        "country": "Spain",
        "country_id": 207
    },
    {
        "id": 34398,
        "name": "Galve de Sorbe",
        "latitude": "41.21667000",
        "longitude": "-3.18333000",
        "country": "Spain",
        "country_id": 207
    },
    {
        "id": 117042,
        "name": "Galveston",
        "latitude": "29.30135000",
        "longitude": "-94.79770000",
        "country": "United States",
        "country_id": 233
    },
    {
        "id": 117043,
        "name": "Galveston",
        "latitude": "40.57893000",
        "longitude": "-86.19027000",
        "country": "United States",
        "country_id": 233
    },
    {
        "id": 117044,
        "name": "Galveston County",
        "latitude": "29.29767000",
        "longitude": "-94.81087000",
        "country": "United States",
        "country_id": 233
    },
    {
        "id": 31074,
        "name": "Galván",
        "latitude": "18.50228000",
        "longitude": "-71.34271000",
        "country": "Dominican Republic",
        "country_id": 62
    },
    {
        "id": 11914,
        "name": "Galvão",
        "latitude": "-26.45882000",
        "longitude": "-52.68535000",
        "country": "Brazil",
        "country_id": 31
    },
    {
        "id": 57256,
        "name": "Galway City",
        "latitude": "53.28770000",
        "longitude": "-9.05004000",
        "country": "Ireland",
        "country_id": 105
    },
    {
        "id": 98453,
        "name": "Galyugayevskaya",
        "latitude": "43.69694000",
        "longitude": "44.93444000",
        "country": "Russia",
        "country_id": 182
    },
    {
        "id": 138824,
        "name": "Galzignano",
        "latitude": "45.30798000",
        "longitude": "11.73134000",
        "country": "Italy",
        "country_id": 107
    },
    {
        "id": 20878,
        "name": "Galán",
        "latitude": "6.66271000",
        "longitude": "-73.34233000",
        "country": "Colombia",
        "country_id": 48
    },
    {
        "id": 34399,
        "name": "Galápagos",
        "latitude": "40.69347000",
        "longitude": "-3.33537000",
        "country": "Spain",
        "country_id": 207
    },
    {
        "id": 52626,
        "name": "Galátista",
        "latitude": "40.46820000",
        "longitude": "23.28015000",
        "country": "Greece",
        "country_id": 85
    },
    {
        "id": 52627,
        "name": "Galátsi",
        "latitude": "38.01667000",
        "longitude": "23.75000000",
        "country": "Greece",
        "country_id": 85
    },
    {
        "id": 94281,
        "name": "Galșa",
        "latitude": "46.28810000",
        "longitude": "21.65137000",
        "country": "Romania",
        "country_id": 181
    },
    {
        "id": 98454,
        "name": "Gal’bshtadt",
        "latitude": "53.22640000",
        "longitude": "78.98450000",
        "country": "Russia",
        "country_id": 182
    },
    {
        "id": 20879,
        "name": "Gama",
        "latitude": "4.76288000",
        "longitude": "-73.61091000",
        "country": "Colombia",
        "country_id": 48
    },
    {
        "id": 42024,
        "name": "Gamaches",
        "latitude": "49.98615000",
        "longitude": "1.55624000",
        "country": "France",
        "country_id": 75
    },
    {
        "id": 63382,
        "name": "Gamagōri",
        "latitude": "34.83333000",
        "longitude": "137.23333000",
        "country": "Japan",
        "country_id": 109
    },
    {
        "id": 63383,
        "name": "Gamagōri-shi",
        "latitude": "34.82759000",
        "longitude": "137.22752000",
        "country": "Japan",
        "country_id": 109
    },
    {
        "id": 138825,
        "name": "Gamalero",
        "latitude": "44.80850000",
        "longitude": "8.54116000",
        "country": "Italy",
        "country_id": 107
    },
    {
        "id": 20880,
        "name": "Gamarra",
        "latitude": "8.32969000",
        "longitude": "-73.71773000",
        "country": "Colombia",
        "country_id": 48
    },
    {
        "id": 147079,
        "name": "Gamasa",
        "latitude": "34.23027778",
        "longitude": "49.08750000",
        "country": "Iran",
        "country_id": 103
    },
    {
        "id": 147080,
        "name": "Gamasb",
        "latitude": "34.04000000",
        "longitude": "48.46500000",
        "country": "Iran",
        "country_id": 103
    },
    {
        "id": 82555,
        "name": "Gamay",
        "latitude": "12.38542000",
        "longitude": "125.29791000",
        "country": "Philippines",
        "country_id": 174
    },
    {
        "id": 148124,
        "name": "Gamay",
        "latitude": "12.38333333",
        "longitude": "125.30000000",
        "country": "Philippines",
        "country_id": 174
    },
    {
        "id": 48134,
        "name": "Gamba",
        "latitude": "-2.65000000",
        "longitude": "10.00000000",
        "country": "Gabon",
        "country_id": 79
    },
    {
        "id": 109069,
        "name": "Gamba",
        "latitude": "-5.90000000",
        "longitude": "39.30000000",
        "country": "Tanzania",
        "country_id": 218
    },
    {
        "id": 42025,
        "name": "Gambais",
        "latitude": "48.77351000",
        "longitude": "1.67196000",
        "country": "France",
        "country_id": 75
    },
    {
        "id": 82556,
        "name": "Gambalidio",
        "latitude": "13.62050000",
        "longitude": "122.89130000",
        "country": "Philippines",
        "country_id": 174
    },
    {
        "id": 82557,
        "name": "Gambang",
        "latitude": "16.75000000",
        "longitude": "120.78330000",
        "country": "Philippines",
        "country_id": 174
    },
    {
        "id": 144802,
        "name": "Gambang",
        "latitude": "16.75000000",
        "longitude": "120.78333333",
        "country": "Philippines",
        "country_id": 174
    },
    {
        "id": 138826,
        "name": "Gambara",
        "latitude": "45.25366000",
        "longitude": "10.29434000",
        "country": "Italy",
        "country_id": 107
    },
    {
        "id": 70516,
        "name": "Gambara",
        "latitude": "18.93230000",
        "longitude": "-102.11240000",
        "country": "Mexico",
        "country_id": 142
    },
    {
        "id": 138827,
        "name": "Gambarana",
        "latitude": "45.02874000",
        "longitude": "8.76282000",
        "country": "Italy",
        "country_id": 107
    },
    {
        "id": 138828,
        "name": "Gambasca",
        "latitude": "44.62950000",
        "longitude": "7.34686000",
        "country": "Italy",
        "country_id": 107
    },
    {
        "id": 138829,
        "name": "Gambassi Terme",
        "latitude": "43.53576000",
        "longitude": "10.95161000",
        "country": "Italy",
        "country_id": 107
    },
    {
        "id": 85443,
        "name": "Gambat",
        "latitude": "27.35170000",
        "longitude": "68.52150000",
        "country": "Pakistan",
        "country_id": 167
    },
    {
        "id": 138830,
        "name": "Gambatesa",
        "latitude": "41.50861000",
        "longitude": "14.91240000",
        "country": "Italy",
        "country_id": 107
    },
    {
        "id": 138831,
        "name": "Gambellara",
        "latitude": "45.45979000",
        "longitude": "11.34009000",
        "country": "Italy",
        "country_id": 107
    },
    {
        "id": 138832,
        "name": "Gamberale",
        "latitude": "41.90529000",
        "longitude": "14.20845000",
        "country": "Italy",
        "country_id": 107
    },
    {
        "id": 138833,
        "name": "Gambettola",
        "latitude": "44.11748000",
        "longitude": "12.33705000",
        "country": "Italy",
        "country_id": 107
    },
    {
        "id": 141338,
        "name": "Gambier",
        "latitude": "40.37562000",
        "longitude": "-82.39710000",
        "country": "United States",
        "country_id": 233
    },
    {
        "id": 70517,
        "name": "Gambino",
        "latitude": "25.65168000",
        "longitude": "-108.38680000",
        "country": "Mexico",
        "country_id": 142
    },
    {
        "id": 56274,
        "name": "Gambiran Satu",
        "latitude": "-8.39390000",
        "longitude": "114.14640000",
        "country": "Indonesia",
        "country_id": 102
    },
    {
        "id": 20881,
        "name": "Gambita",
        "latitude": "5.90273000",
        "longitude": "-73.36788000",
        "country": "Colombia",
        "country_id": 48
    },
    {
        "id": 16445,
        "name": "Gambo",
        "latitude": "48.78320000",
        "longitude": "-54.21482000",
        "country": "Canada",
        "country_id": 39
    },
    {
        "id": 17316,
        "name": "Gambo",
        "latitude": "4.64816000",
        "longitude": "22.26331000",
        "country": "Central African Republic",
        "country_id": 42
    },
    {
        "id": 138834,
        "name": "Gambolò",
        "latitude": "45.26209000",
        "longitude": "8.85820000",
        "country": "Italy",
        "country_id": 107
    },
    {
        "id": 17343,
        "name": "Gamboma",
        "latitude": "-1.87639000",
        "longitude": "15.86444000",
        "country": "Congo",
        "country_id": 50
    },
    {
        "id": 76874,
        "name": "Gamboru",
        "latitude": "12.37299000",
        "longitude": "14.20690000",
        "country": "Nigeria",
        "country_id": 161
    },
    {
        "id": 608,
        "name": "Gambos",
        "latitude": "-15.80926000",
        "longitude": "14.07661000",
        "country": "Angola",
        "country_id": 7
    },
    {
        "id": 17317,
        "name": "Gamboula",
        "latitude": "4.11775000",
        "longitude": "15.13926000",
        "country": "Central African Republic",
        "country_id": 42
    },
    {
        "id": 117045,
        "name": "Gambrills",
        "latitude": "39.06705000",
        "longitude": "-76.66524000",
        "country": "United States",
        "country_id": 233
    },
    {
        "id": 42026,
        "name": "Gambsheim",
        "latitude": "48.69209000",
        "longitude": "7.88286000",
        "country": "France",
        "country_id": 75
    },
    {
        "id": 138835,
        "name": "Gambugliano",
        "latitude": "45.58799000",
        "longitude": "11.43859000",
        "country": "Italy",
        "country_id": 107
    },
    {
        "id": 38632,
        "name": "Gambēla",
        "latitude": "8.25000000",
        "longitude": "34.58333000",
        "country": "Ethiopia",
        "country_id": 70
    },
    {
        "id": 11915,
        "name": "Gameleira",
        "latitude": "-8.58444000",
        "longitude": "-35.38667000",
        "country": "Brazil",
        "country_id": 31
    },
    {
        "id": 11916,
        "name": "Gameleira de Goiás",
        "latitude": "-16.43131000",
        "longitude": "-48.67456000",
        "country": "Brazil",
        "country_id": 31
    },
    {
        "id": 11917,
        "name": "Gameleiras",
        "latitude": "-14.97096000",
        "longitude": "-43.30610000",
        "country": "Brazil",
        "country_id": 31
    },
    {
        "id": 77681,
        "name": "Gameren",
        "latitude": "51.80083000",
        "longitude": "5.20417000",
        "country": "Netherlands",
        "country_id": 156
    },
    {
        "id": 117046,
        "name": "Gamewell",
        "latitude": "35.86930000",
        "longitude": "-81.59621000",
        "country": "United States",
        "country_id": 233
    },
    {
        "id": 20882,
        "name": "Gameza",
        "latitude": "5.80313000",
        "longitude": "-72.73721000",
        "country": "Colombia",
        "country_id": 48
    },
    {
        "id": 2052,
        "name": "Gaming",
        "latitude": "47.92900000",
        "longitude": "15.08818000",
        "country": "Austria",
        "country_id": 15
    },
    {
        "id": 151280,
        "name": "Gamiz-Fika",
        "latitude": "0.00000000",
        "longitude": "0.00000000",
        "country": "Spain",
        "country_id": 207
    },
    {
        "id": 103199,
        "name": "Gamla Stan",
        "latitude": "59.32627000",
        "longitude": "18.07251000",
        "country": "Sweden",
        "country_id": 213
    },
    {
        "id": 103200,
        "name": "Gamla Uppsala",
        "latitude": "59.89817000",
        "longitude": "17.63386000",
        "country": "Sweden",
        "country_id": 213
    },
    {
        "id": 103201,
        "name": "Gamleby",
        "latitude": "57.89485000",
        "longitude": "16.40508000",
        "country": "Sweden",
        "country_id": 213
    },
    {
        "id": 49625,
        "name": "Gamlingay",
        "latitude": "52.15561000",
        "longitude": "-0.19303000",
        "country": "United Kingdom",
        "country_id": 232
    },
    {
        "id": 2053,
        "name": "Gamlitz",
        "latitude": "46.72028000",
        "longitude": "15.55333000",
        "country": "Austria",
        "country_id": 15
    },
    {
        "id": 145197,
        "name": "Gammad",
        "latitude": "17.71027778",
        "longitude": "121.74361111",
        "country": "Philippines",
        "country_id": 174
    },
    {
        "id": 82558,
        "name": "Gammad",
        "latitude": "17.71040000",
        "longitude": "121.74370000",
        "country": "Philippines",
        "country_id": 174
    },
    {
        "id": 25353,
        "name": "Gammelsdorf",
        "latitude": "48.55000000",
        "longitude": "11.95000000",
        "country": "Germany",
        "country_id": 82
    },
    {
        "id": 25354,
        "name": "Gammelshausen",
        "latitude": "48.64023000",
        "longitude": "9.65072000",
        "country": "Germany",
        "country_id": 82
    },
    {
        "id": 103202,
        "name": "Gammelstad",
        "latitude": "65.63931000",
        "longitude": "22.01145000",
        "country": "Sweden",
        "country_id": 213
    },
    {
        "id": 25355,
        "name": "Gammertingen",
        "latitude": "48.25240000",
        "longitude": "9.22349000",
        "country": "Germany",
        "country_id": 82
    },
    {
        "id": 34400,
        "name": "Gamonal",
        "latitude": "42.35664000",
        "longitude": "-3.67321000",
        "country": "Spain",
        "country_id": 207
    },
    {
        "id": 34401,
        "name": "Gamones",
        "latitude": "41.46690000",
        "longitude": "-6.17621000",
        "country": "Spain",
        "country_id": 207
    },
    {
        "id": 98455,
        "name": "Gamovo",
        "latitude": "57.86520000",
        "longitude": "56.10560000",
        "country": "Russia",
        "country_id": 182
    },
    {
        "id": 66470,
        "name": "Gampaha",
        "latitude": "7.08970000",
        "longitude": "79.99250000",
        "country": "Sri Lanka",
        "country_id": 208
    },
    {
        "id": 66471,
        "name": "Gampaha District",
        "latitude": "7.13330000",
        "longitude": "80.00000000",
        "country": "Sri Lanka",
        "country_id": 208
    },
    {
        "id": 17820,
        "name": "Gampel",
        "latitude": "46.31599000",
        "longitude": "7.74210000",
        "country": "Switzerland",
        "country_id": 214
    },
    {
        "id": 56275,
        "name": "Gampengrejo",
        "latitude": "-7.76667000",
        "longitude": "112.01667000",
        "country": "Indonesia",
        "country_id": 102
    },
    {
        "id": 2054,
        "name": "Gampern",
        "latitude": "47.98877000",
        "longitude": "13.55430000",
        "country": "Austria",
        "country_id": 15
    },
    {
        "id": 66472,
        "name": "Gampola",
        "latitude": "7.16430000",
        "longitude": "80.56960000",
        "country": "Sri Lanka",
        "country_id": 208
    },
    {
        "id": 66439,
        "name": "Gamprin",
        "latitude": "47.22038000",
        "longitude": "9.50935000",
        "country": "Liechtenstein",
        "country_id": 125
    },
    {
        "id": 17821,
        "name": "Gams",
        "latitude": "47.20429000",
        "longitude": "9.44172000",
        "country": "Switzerland",
        "country_id": 214
    },
    {
        "id": 2055,
        "name": "Gams bei Hieflau",
        "latitude": "47.66667000",
        "longitude": "14.78333000",
        "country": "Austria",
        "country_id": 15
    },
    {
        "id": 145198,
        "name": "Gamu",
        "latitude": "17.05000000",
        "longitude": "121.83333333",
        "country": "Philippines",
        "country_id": 174
    },
    {
        "id": 82559,
        "name": "Gamu",
        "latitude": "17.04975000",
        "longitude": "121.83604000",
        "country": "Philippines",
        "country_id": 174
    },
    {
        "id": 144427,
        "name": "Gamut",
        "latitude": "8.53166667",
        "longitude": "126.24111111",
        "country": "Philippines",
        "country_id": 174
    },
    {
        "id": 82560,
        "name": "Gamut",
        "latitude": "8.53153000",
        "longitude": "126.24117000",
        "country": "Philippines",
        "country_id": 174
    },
    {
        "id": 79170,
        "name": "Gamvik",
        "latitude": "71.04107000",
        "longitude": "27.85144000",
        "country": "Norway",
        "country_id": 165
    },
    {
        "id": 42027,
        "name": "Gan",
        "latitude": "43.23333000",
        "longitude": "-0.38333000",
        "country": "France",
        "country_id": 75
    },
    {
        "id": 57468,
        "name": "Gan Yavne",
        "latitude": "31.78737000",
        "longitude": "34.70659000",
        "country": "Israel",
        "country_id": 106
    },
    {
        "id": 117047,
        "name": "Ganado",
        "latitude": "29.04054000",
        "longitude": "-96.51358000",
        "country": "United States",
        "country_id": 233
    },
    {
        "id": 117048,
        "name": "Ganado",
        "latitude": "35.71140000",
        "longitude": "-109.54205000",
        "country": "United States",
        "country_id": 233
    },
    {
        "id": 16446,
        "name": "Gananoque",
        "latitude": "44.33342000",
        "longitude": "-76.16607000",
        "country": "Canada",
        "country_id": 39
    },
    {
        "id": 145199,
        "name": "Ganapi",
        "latitude": "17.20166667",
        "longitude": "121.86527778",
        "country": "Philippines",
        "country_id": 174
    },
    {
        "id": 82561,
        "name": "Ganapi",
        "latitude": "17.20174000",
        "longitude": "121.86524000",
        "country": "Philippines",
        "country_id": 174
    },
    {
        "id": 144694,
        "name": "Ganassi",
        "latitude": "7.82694000",
        "longitude": "124.10344000",
        "country": "Philippines",
        "country_id": 174
    },
    {
        "id": 82562,
        "name": "Ganassi",
        "latitude": "7.82694000",
        "longitude": "124.10344000",
        "country": "Philippines",
        "country_id": 174
    },
    {
        "id": 1088,
        "name": "Gancedo",
        "latitude": "-27.49038000",
        "longitude": "-61.67571000",
        "country": "Argentina",
        "country_id": 11
    },
    {
        "id": 153657,
        "name": "Ganda",
        "latitude": "-12.68250000",
        "longitude": "14.42330000",
        "country": "Angola",
        "country_id": 7
    },
    {
        "id": 138836,
        "name": "Ganda",
        "latitude": "46.55459000",
        "longitude": "10.78042000",
        "country": "Italy",
        "country_id": 107
    },
    {
        "id": 131897,
        "name": "Gandai",
        "latitude": "21.66667000",
        "longitude": "81.10013000",
        "country": "India",
        "country_id": 101
    },
    {
        "id": 17243,
        "name": "Gandajika",
        "latitude": "-6.74504000",
        "longitude": "23.95328000",
        "country": "Democratic Republic of the Congo",
        "country_id": 51
    },
    {
        "id": 148047,
        "name": "Gandara",
        "latitude": "12.01300000",
        "longitude": "124.81180000",
        "country": "Philippines",
        "country_id": 174
    },
    {
        "id": 82563,
        "name": "Gandara",
        "latitude": "12.01300000",
        "longitude": "124.81180000",
        "country": "Philippines",
        "country_id": 174
    },
    {
        "id": 138837,
        "name": "Gandellino",
        "latitude": "45.99109000",
        "longitude": "9.94615000",
        "country": "Italy",
        "country_id": 107
    },
    {
        "id": 131898,
        "name": "Ganderbal",
        "latitude": "34.29467000",
        "longitude": "75.19996000",
        "country": "India",
        "country_id": 101
    },
    {
        "id": 25356,
        "name": "Ganderkesee",
        "latitude": "53.03333000",
        "longitude": "8.53333000",
        "country": "Germany",
        "country_id": 82
    },
    {
        "id": 34402,
        "name": "Gandesa",
        "latitude": "41.05375000",
        "longitude": "0.43850000",
        "country": "Spain",
        "country_id": 207
    },
    {
        "id": 131899,
        "name": "Gandevi",
        "latitude": "20.81214000",
        "longitude": "72.99811000",
        "country": "India",
        "country_id": 101
    },
    {
        "id": 132045,
        "name": "Gandhi Nagar",
        "latitude": "13.00639000",
        "longitude": "80.25417000",
        "country": "India",
        "country_id": 101
    },
    {
        "id": 132046,
        "name": "Gandhidham",
        "latitude": "23.08333000",
        "longitude": "70.13333000",
        "country": "India",
        "country_id": 101
    },
    {
        "id": 131900,
        "name": "Gandhinagar",
        "latitude": "23.21667000",
        "longitude": "72.68333000",
        "country": "India",
        "country_id": 101
    },
    {
        "id": 70518,
        "name": "Gandhó",
        "latitude": "20.54525000",
        "longitude": "-99.68737000",
        "country": "Mexico",
        "country_id": 142
    },
    {
        "id": 76875,
        "name": "Gandi",
        "latitude": "12.96358000",
        "longitude": "5.74337000",
        "country": "Nigeria",
        "country_id": 161
    },
    {
        "id": 34403,
        "name": "Gandia",
        "latitude": "38.96667000",
        "longitude": "-0.18333000",
        "country": "Spain",
        "country_id": 207
    },
    {
        "id": 104712,
        "name": "Gandiaye",
        "latitude": "14.23333000",
        "longitude": "-16.26667000",
        "country": "Senegal",
        "country_id": 195
    },
    {
        "id": 138838,
        "name": "Gandino",
        "latitude": "45.81088000",
        "longitude": "9.89767000",
        "country": "Italy",
        "country_id": 107
    },
    {
        "id": 150388,
        "name": "Gandoman",
        "latitude": "31.86348680",
        "longitude": "51.13710870",
        "country": "Iran",
        "country_id": 103
    },
    {
        "id": 104624,
        "name": "Gandorhun",
        "latitude": "7.55502000",
        "longitude": "-11.69260000",
        "country": "Sierra Leone",
        "country_id": 198
    },
    {
        "id": 138839,
        "name": "Gandosso",
        "latitude": "45.65888000",
        "longitude": "9.88886000",
        "country": "Italy",
        "country_id": 107
    },
    {
        "id": 89206,
        "name": "Gandra",
        "latitude": "41.20116000",
        "longitude": "-8.43376000",
        "country": "Portugal",
        "country_id": 177
    },
    {
        "id": 89207,
        "name": "Gandra",
        "latitude": "41.52185000",
        "longitude": "-8.76185000",
        "country": "Portugal",
        "country_id": 177
    },
    {
        "id": 42028,
        "name": "Gandrange",
        "latitude": "49.27133000",
        "longitude": "6.12536000",
        "country": "France",
        "country_id": 75
    },
    {
        "id": 11918,
        "name": "Gandu",
        "latitude": "-13.74389000",
        "longitude": "-39.48667000",
        "country": "Brazil",
        "country_id": 31
    },
    {
        "id": 117049,
        "name": "Gandy",
        "latitude": "27.86850000",
        "longitude": "-82.61612000",
        "country": "United States",
        "country_id": 233
    },
    {
        "id": 385,
        "name": "Gandzak",
        "latitude": "40.31472000",
        "longitude": "45.11139000",
        "country": "Armenia",
        "country_id": 12
    },
    {
        "id": 57469,
        "name": "Ganei Tikva",
        "latitude": "32.05971000",
        "longitude": "34.87320000",
        "country": "Israel",
        "country_id": 106
    },
    {
        "id": 144695,
        "name": "Gang",
        "latitude": "7.24583333",
        "longitude": "124.26638889",
        "country": "Philippines",
        "country_id": 174
    },
    {
        "id": 82564,
        "name": "Gang",
        "latitude": "7.24583000",
        "longitude": "124.26639000",
        "country": "Philippines",
        "country_id": 174
    },
    {
        "id": 117050,
        "name": "Gang Mills",
        "latitude": "42.14619000",
        "longitude": "-77.11164000",
        "country": "United States",
        "country_id": 233
    },
    {
        "id": 146171,
        "name": "Ganga Ihala Korale",
        "latitude": "7.11455516",
        "longitude": "80.51448810",
        "country": "Sri Lanka",
        "country_id": 208
    },
    {
        "id": 141941,
        "name": "Gangadharpur",
        "latitude": "22.76040000",
        "longitude": "88.22180000",
        "country": "India",
        "country_id": 101
    },
    {
        "id": 131901,
        "name": "Gangaikondan",
        "latitude": "8.85785000",
        "longitude": "77.78019000",
        "country": "India",
        "country_id": 101
    },
    {
        "id": 131907,
        "name": "Gangakher",
        "latitude": "18.96962000",
        "longitude": "76.74946000",
        "country": "India",
        "country_id": 101
    },
    {
        "id": 131908,
        "name": "Ganganagar",
        "latitude": "29.92009000",
        "longitude": "73.87496000",
        "country": "India",
        "country_id": 101
    },
    {
        "id": 131909,
        "name": "Gangapur",
        "latitude": "26.47249000",
        "longitude": "76.71744000",
        "country": "India",
        "country_id": 101
    },
    {
        "id": 131910,
        "name": "Gangapur",
        "latitude": "19.69718000",
        "longitude": "75.01045000",
        "country": "India",
        "country_id": 101
    },
    {
        "id": 141942,
        "name": "Gangarampur",
        "latitude": "25.40000000",
        "longitude": "88.52000000",
        "country": "India",
        "country_id": 101
    },
    {
        "id": 131902,
        "name": "Gangavalli",
        "latitude": "11.49828000",
        "longitude": "78.64966000",
        "country": "India",
        "country_id": 101
    },
    {
        "id": 131911,
        "name": "Gangawati",
        "latitude": "15.43130000",
        "longitude": "76.52933000",
        "country": "India",
        "country_id": 101
    },
    {
        "id": 65318,
        "name": "Gangbuk-gu",
        "latitude": "37.63490000",
        "longitude": "127.02015000",
        "country": "South Korea",
        "country_id": 116
    },
    {
        "id": 19534,
        "name": "Gangdong",
        "latitude": "27.91694000",
        "longitude": "110.83417000",
        "country": "China",
        "country_id": 45
    },
    {
        "id": 65319,
        "name": "Gangdong-gu",
        "latitude": "37.55274000",
        "longitude": "127.14546000",
        "country": "South Korea",
        "country_id": 116
    },
    {
        "id": 25357,
        "name": "Gangelt",
        "latitude": "50.99247000",
        "longitude": "5.99802000",
        "country": "Germany",
        "country_id": 82
    },
    {
        "id": 42029,
        "name": "Ganges",
        "latitude": "43.93380000",
        "longitude": "3.70784000",
        "country": "France",
        "country_id": 75
    },
    {
        "id": 138840,
        "name": "Gangi",
        "latitude": "37.79565000",
        "longitude": "14.20437000",
        "country": "Italy",
        "country_id": 107
    },
    {
        "id": 65320,
        "name": "Gangjin-gun",
        "latitude": "34.61787000",
        "longitude": "126.76758000",
        "country": "South Korea",
        "country_id": 116
    },
    {
        "id": 25358,
        "name": "Gangkofen",
        "latitude": "48.43701000",
        "longitude": "12.56419000",
        "country": "Germany",
        "country_id": 82
    },
    {
        "id": 25359,
        "name": "Gangloffsömmern",
        "latitude": "51.18940000",
        "longitude": "10.94332000",
        "country": "Germany",
        "country_id": 82
    },
    {
        "id": 65321,
        "name": "Gangnam-gu",
        "latitude": "37.49510000",
        "longitude": "127.06278000",
        "country": "South Korea",
        "country_id": 116
    },
    {
        "id": 65322,
        "name": "Gangneung",
        "latitude": "37.75266000",
        "longitude": "128.87239000",
        "country": "South Korea",
        "country_id": 116
    },
    {
        "id": 65323,
        "name": "Gangneung-si",
        "latitude": "37.75190000",
        "longitude": "128.87825000",
        "country": "South Korea",
        "country_id": 116
    },
    {
        "id": 131903,
        "name": "Gangoh",
        "latitude": "29.78004000",
        "longitude": "77.26346000",
        "country": "India",
        "country_id": 101
    },
    {
        "id": 131904,
        "name": "Gangolli",
        "latitude": "13.65024000",
        "longitude": "74.67072000",
        "country": "India",
        "country_id": 101
    },
    {
        "id": 65324,
        "name": "Gangseo-gu",
        "latitude": "37.56227000",
        "longitude": "126.81622000",
        "country": "South Korea",
        "country_id": 116
    },
    {
        "id": 65325,
        "name": "Gangseo-gu",
        "latitude": "35.15930000",
        "longitude": "128.93300000",
        "country": "South Korea",
        "country_id": 116
    },
    {
        "id": 131905,
        "name": "Gangtok",
        "latitude": "27.32574000",
        "longitude": "88.61216000",
        "country": "India",
        "country_id": 101
    },
    {
        "id": 131906,
        "name": "Ganguvada",
        "latitude": "18.66667000",
        "longitude": "84.11667000",
        "country": "India",
        "country_id": 101
    },
    {
        "id": 147474,
        "name": "Ganj Dundawara",
        "latitude": "27.73277778",
        "longitude": "78.94166667",
        "country": "India",
        "country_id": 101
    },
    {
        "id": 131912,
        "name": "Ganj Dundwara",
        "latitude": "27.73308000",
        "longitude": "78.94119000",
        "country": "India",
        "country_id": 101
    },
    {
        "id": 131913,
        "name": "Ganj Muradabad",
        "latitude": "26.95733000",
        "longitude": "80.18400000",
        "country": "India",
        "country_id": 101
    },
    {
        "id": 147081,
        "name": "Ganj Tappeh",
        "latitude": "34.93333300",
        "longitude": "48.46361100",
        "country": "Iran",
        "country_id": 103
    },
    {
        "id": 8081,
        "name": "Ganja",
        "latitude": "40.68278000",
        "longitude": "46.36056000",
        "country": "Azerbaijan",
        "country_id": 16
    },
    {
        "id": 147082,
        "name": "Ganjab",
        "latitude": "34.45277778",
        "longitude": "48.98722222",
        "country": "Iran",
        "country_id": 103
    },
    {
        "id": 131914,
        "name": "Ganjam",
        "latitude": "19.38705000",
        "longitude": "85.05079000",
        "country": "India",
        "country_id": 101
    },
    {
        "id": 30664,
        "name": "Ganløse",
        "latitude": "55.79124000",
        "longitude": "12.26421000",
        "country": "Denmark",
        "country_id": 59
    },
    {
        "id": 138841,
        "name": "Ganna",
        "latitude": "45.90212000",
        "longitude": "8.82606000",
        "country": "Italy",
        "country_id": 107
    },