[
    {
        "id": 38569,
        "name": "s'Arenal",
        "latitude": "39.50000000",
        "longitude": "2.75000000",
        "country": "Spain",
        "country_id": 207
    },
    {
        "id": 59710,
        "name": "S.P. in Palazzi",
        "latitude": "43.32776000",
        "longitude": "10.50881000",
        "country": "Italy",
        "country_id": 107
    },
    {
        "id": 130589,
        "name": "Sa Dec",
        "latitude": "10.29085000",
        "longitude": "105.75635000",
        "country": "Vietnam",
        "country_id": 240
    },
    {
        "id": 130590,
        "name": "Sa Dec city",
        "latitude": "10.30550000",
        "longitude": "105.74757000",
        "country": "Vietnam",
        "country_id": 240
    },
    {
        "id": 106671,
        "name": "Sa Kaeo",
        "latitude": "13.81411000",
        "longitude": "102.07222000",
        "country": "Thailand",
        "country_id": 219
    },
    {
        "id": 130591,
        "name": "Sa Pa",
        "latitude": "22.34023000",
        "longitude": "103.84415000",
        "country": "Vietnam",
        "country_id": 240
    },
    {
        "id": 38570,
        "name": "sa Pobla",
        "latitude": "39.76920000",
        "longitude": "3.02394000",
        "country": "Spain",
        "country_id": 207
    },
    {
        "id": 130957,
        "name": "Sa'dah",
        "latitude": "16.94021000",
        "longitude": "43.76393000",
        "country": "Yemen",
        "country_id": 245
    },
    {
        "id": 130958,
        "name": "Sa'fan",
        "latitude": "15.07120000",
        "longitude": "43.58270000",
        "country": "Yemen",
        "country_id": 245
    },
    {
        "id": 19254,
        "name": "Saa",
        "latitude": "4.36667000",
        "longitude": "11.45000000",
        "country": "Cameroon",
        "country_id": 38
    },
    {
        "id": 84364,
        "name": "Saaban",
        "latitude": "13.13049000",
        "longitude": "121.36872000",
        "country": "Philippines",
        "country_id": 174
    },
    {
        "id": 104814,
        "name": "Saacow",
        "latitude": "1.62794000",
        "longitude": "42.44067000",
        "country": "Somalia",
        "country_id": 203
    },
    {
        "id": 150637,
        "name": "SaadatShahr",
        "latitude": "30.08246270",
        "longitude": "53.12756530",
        "country": "Iran",
        "country_id": 103
    },
    {
        "id": 28811,
        "name": "Saal",
        "latitude": "54.31051000",
        "longitude": "12.49935000",
        "country": "Germany",
        "country_id": 82
    },
    {
        "id": 28812,
        "name": "Saal",
        "latitude": "48.90099000",
        "longitude": "11.93196000",
        "country": "Germany",
        "country_id": 82
    },
    {
        "id": 28813,
        "name": "Saal an der Saale",
        "latitude": "50.31673000",
        "longitude": "10.35769000",
        "country": "Germany",
        "country_id": 82
    },
    {
        "id": 3229,
        "name": "Saalbach",
        "latitude": "47.39138000",
        "longitude": "12.63642000",
        "country": "Austria",
        "country_id": 15
    },
    {
        "id": 28814,
        "name": "Saalfeld",
        "latitude": "50.64826000",
        "longitude": "11.36536000",
        "country": "Germany",
        "country_id": 82
    },
    {
        "id": 3230,
        "name": "Saalfelden am Steinernen Meer",
        "latitude": "47.42681000",
        "longitude": "12.84800000",
        "country": "Austria",
        "country_id": 15
    },
    {
        "id": 18415,
        "name": "Saanen",
        "latitude": "46.48945000",
        "longitude": "7.26003000",
        "country": "Switzerland",
        "country_id": 214
    },
    {
        "id": 28815,
        "name": "Saara",
        "latitude": "50.93284000",
        "longitude": "12.42096000",
        "country": "Germany",
        "country_id": 82
    },
    {
        "id": 28816,
        "name": "Saarbrücken",
        "latitude": "49.23262000",
        "longitude": "7.00982000",
        "country": "Germany",
        "country_id": 82
    },
    {
        "id": 28817,
        "name": "Saarburg",
        "latitude": "49.60641000",
        "longitude": "6.54365000",
        "country": "Germany",
        "country_id": 82
    },
    {
        "id": 31703,
        "name": "Saarde vald",
        "latitude": "58.13802000",
        "longitude": "24.95564000",
        "country": "Estonia",
        "country_id": 69
    },
    {
        "id": 28818,
        "name": "Saarhölzbach",
        "latitude": "49.51585000",
        "longitude": "6.60742000",
        "country": "Germany",
        "country_id": 82
    },
    {
        "id": 39034,
        "name": "Saari",
        "latitude": "61.65000000",
        "longitude": "29.75000000",
        "country": "Finland",
        "country_id": 74
    },
    {
        "id": 39035,
        "name": "Saarijärvi",
        "latitude": "62.70486000",
        "longitude": "25.25396000",
        "country": "Finland",
        "country_id": 74
    },
    {
        "id": 28819,
        "name": "Saarlouis",
        "latitude": "49.31366000",
        "longitude": "6.75154000",
        "country": "Germany",
        "country_id": 82
    },
    {
        "id": 28820,
        "name": "Saarwellingen",
        "latitude": "49.35430000",
        "longitude": "6.80487000",
        "country": "Germany",
        "country_id": 82
    },
    {
        "id": 18416,
        "name": "Saas-Fee",
        "latitude": "46.10805000",
        "longitude": "7.92741000",
        "country": "Switzerland",
        "country_id": 214
    },
    {
        "id": 18417,
        "name": "Saas-Grund",
        "latitude": "46.12281000",
        "longitude": "7.93651000",
        "country": "Switzerland",
        "country_id": 214
    },
    {
        "id": 8160,
        "name": "Saatlı",
        "latitude": "39.93214000",
        "longitude": "48.36892000",
        "country": "Azerbaijan",
        "country_id": 16
    },
    {
        "id": 148375,
        "name": "Saavedra",
        "latitude": "-38.78333333",
        "longitude": "-73.40000000",
        "country": "Chile",
        "country_id": 44
    },
    {
        "id": 84365,
        "name": "Saavedra",
        "latitude": "9.98517000",
        "longitude": "123.37158000",
        "country": "Philippines",
        "country_id": 174
    },
    {
        "id": 52296,
        "name": "Saba",
        "latitude": "13.51639000",
        "longitude": "-16.04917000",
        "country": "Gambia The",
        "country_id": 80
    },
    {
        "id": 36722,
        "name": "Sabadell",
        "latitude": "41.54329000",
        "longitude": "2.10942000",
        "country": "Spain",
        "country_id": 207
    },
    {
        "id": 64236,
        "name": "Sabae",
        "latitude": "35.94647000",
        "longitude": "136.18498000",
        "country": "Japan",
        "country_id": 109
    },
    {
        "id": 64237,
        "name": "Sabae-shi",
        "latitude": "35.95932000",
        "longitude": "136.21835000",
        "country": "Japan",
        "country_id": 109
    },
    {
        "id": 130959,
        "name": "Sabah",
        "latitude": "14.27590000",
        "longitude": "44.67000000",
        "country": "Yemen",
        "country_id": 245
    },
    {
        "id": 133738,
        "name": "Sabalgarh",
        "latitude": "26.24918000",
        "longitude": "77.40786000",
        "country": "India",
        "country_id": 101
    },
    {
        "id": 147550,
        "name": "Sabalpur",
        "latitude": "27.17604900",
        "longitude": "79.42012000",
        "country": "India",
        "country_id": 101
    },
    {
        "id": 73188,
        "name": "Saban",
        "latitude": "20.03450000",
        "longitude": "-88.53891000",
        "country": "Mexico",
        "country_id": 142
    },
    {
        "id": 143191,
        "name": "Sabana",
        "latitude": "18.46083333",
        "longitude": "-66.35861111",
        "country": "United States",
        "country_id": 233
    },
    {
        "id": 31170,
        "name": "Sabana Buey",
        "latitude": "18.27351000",
        "longitude": "-70.52352000",
        "country": "Dominican Republic",
        "country_id": 62
    },
    {
        "id": 31175,
        "name": "Sabana de la Mar",
        "latitude": "19.03333000",
        "longitude": "-69.41667000",
        "country": "Dominican Republic",
        "country_id": 62
    },
    {
        "id": 21308,
        "name": "Sabana de Torres",
        "latitude": "7.39150000",
        "longitude": "-73.49574000",
        "country": "Colombia",
        "country_id": 48
    },
    {
        "id": 31176,
        "name": "Sabana del Puerto",
        "latitude": "19.06667000",
        "longitude": "-70.41667000",
        "country": "Dominican Republic",
        "country_id": 62
    },
    {
        "id": 143192,
        "name": "Sabana Eneas",
        "latitude": "18.08611111",
        "longitude": "-67.08111111",
        "country": "United States",
        "country_id": 233
    },
    {
        "id": 80467,
        "name": "Sabana Grande",
        "latitude": "7.88002000",
        "longitude": "-80.63818000",
        "country": "Panama",
        "country_id": 170
    },
    {
        "id": 80468,
        "name": "Sabana Grande",
        "latitude": "7.83543000",
        "longitude": "-80.36490000",
        "country": "Panama",
        "country_id": 170
    },
    {
        "id": 153610,
        "name": "Sabana Grande",
        "latitude": "18.07773920",
        "longitude": "-66.96045490",
        "country": "Puerto Rico",
        "country_id": 178
    },
    {
        "id": 143193,
        "name": "Sabana Grande",
        "latitude": "18.07972222",
        "longitude": "-66.96083333",
        "country": "United States",
        "country_id": 233
    },
    {
        "id": 31171,
        "name": "Sabana Grande de Boyá",
        "latitude": "18.94498000",
        "longitude": "-69.79331000",
        "country": "Dominican Republic",
        "country_id": 62
    },
    {
        "id": 31172,
        "name": "Sabana Grande de Palenque",
        "latitude": "18.26256000",
        "longitude": "-70.14821000",
        "country": "Dominican Republic",
        "country_id": 62
    },
    {
        "id": 143194,
        "name": "Sabana Grande Municipio",
        "latitude": "18.09385000",
        "longitude": "-66.94962000",
        "country": "United States",
        "country_id": 233
    },
    {
        "id": 143195,
        "name": "Sabana Hoyos",
        "latitude": "18.43388889",
        "longitude": "-66.61388889",
        "country": "United States",
        "country_id": 233
    },
    {
        "id": 31173,
        "name": "Sabana Iglesia",
        "latitude": "19.32114000",
        "longitude": "-70.75992000",
        "country": "Dominican Republic",
        "country_id": 62
    },
    {
        "id": 143196,
        "name": "Sabana Seca",
        "latitude": "18.42694444",
        "longitude": "-66.18472222",
        "country": "United States",
        "country_id": 233
    },
    {
        "id": 31174,
        "name": "Sabana Yegua",
        "latitude": "18.71667000",
        "longitude": "-71.01667000",
        "country": "Dominican Republic",
        "country_id": 62
    },
    {
        "id": 21309,
        "name": "Sabanagrande",
        "latitude": "10.80077000",
        "longitude": "-74.77051000",
        "country": "Colombia",
        "country_id": 48
    },
    {
        "id": 54204,
        "name": "Sabanagrande",
        "latitude": "13.80778000",
        "longitude": "-87.25917000",
        "country": "Honduras",
        "country_id": 97
    },
    {
        "id": 21310,
        "name": "Sabanalarga",
        "latitude": "4.85430000",
        "longitude": "-73.04003000",
        "country": "Colombia",
        "country_id": 48
    },
    {
        "id": 21311,
        "name": "Sabanalarga",
        "latitude": "6.84893000",
        "longitude": "-75.81711000",
        "country": "Colombia",
        "country_id": 48
    },
    {
        "id": 21312,
        "name": "Sabanalarga",
        "latitude": "10.61636000",
        "longitude": "-74.95717000",
        "country": "Colombia",
        "country_id": 48
    },
    {
        "id": 21313,
        "name": "Sabanas de San Angel",
        "latitude": "10.11072000",
        "longitude": "-74.26007000",
        "country": "Colombia",
        "country_id": 48
    },
    {
        "id": 73189,
        "name": "Sabanas de Xalostoc",
        "latitude": "20.22223000",
        "longitude": "-97.53525000",
        "country": "Mexico",
        "country_id": 142
    },
    {
        "id": 73190,
        "name": "Sabancuy",
        "latitude": "18.97270000",
        "longitude": "-91.17783000",
        "country": "Mexico",
        "country_id": 142
    },
    {
        "id": 21314,
        "name": "Sabaneta",
        "latitude": "6.15153000",
        "longitude": "-75.61657000",
        "country": "Colombia",
        "country_id": 48
    },
    {
        "id": 31177,
        "name": "Sabaneta",
        "latitude": "19.47793000",
        "longitude": "-71.34125000",
        "country": "Dominican Republic",
        "country_id": 62
    },
    {
        "id": 73191,
        "name": "Sabaneta",
        "latitude": "18.22325000",
        "longitude": "-95.08082000",
        "country": "Mexico",
        "country_id": 142
    },
    {
        "id": 56957,
        "name": "Sabang",
        "latitude": "5.88969000",
        "longitude": "95.31644000",
        "country": "Indonesia",
        "country_id": 102
    },
    {
        "id": 147988,
        "name": "Sabang",
        "latitude": "12.07472222",
        "longitude": "124.54138889",
        "country": "Philippines",
        "country_id": 174
    },
    {
        "id": 84366,
        "name": "Sabang",
        "latitude": "12.07460000",
        "longitude": "124.54140000",
        "country": "Philippines",
        "country_id": 174
    },
    {
        "id": 84367,
        "name": "Sabang",
        "latitude": "14.69510000",
        "longitude": "120.25070000",
        "country": "Philippines",
        "country_id": 174
    },
    {
        "id": 84368,
        "name": "Sabang",
        "latitude": "12.73333000",
        "longitude": "123.93333000",
        "country": "Philippines",
        "country_id": 174
    },
    {
        "id": 84369,
        "name": "Sabang",
        "latitude": "14.30556000",
        "longitude": "120.80361000",
        "country": "Philippines",
        "country_id": 174
    },
    {
        "id": 84370,
        "name": "Sabang",
        "latitude": "13.50920000",
        "longitude": "120.97370000",
        "country": "Philippines",
        "country_id": 174
    },
    {
        "id": 145633,
        "name": "Sabang",
        "latitude": "14.69500000",
        "longitude": "120.25083333",
        "country": "Philippines",
        "country_id": 174
    },
    {
        "id": 84371,
        "name": "Sabang Indan",
        "latitude": "14.21940000",
        "longitude": "122.91510000",
        "country": "Philippines",
        "country_id": 174
    },
    {
        "id": 144847,
        "name": "Sabangan",
        "latitude": "16.95000000",
        "longitude": "120.91666667",
        "country": "Philippines",
        "country_id": 174
    },
    {
        "id": 21742,
        "name": "Sabanilla",
        "latitude": "10.07404000",
        "longitude": "-84.21551000",
        "country": "Costa Rica",
        "country_id": 53
    },
    {
        "id": 21743,
        "name": "Sabanilla",
        "latitude": "9.94522000",
        "longitude": "-84.03927000",
        "country": "Costa Rica",
        "country_id": 53
    },
    {
        "id": 73192,
        "name": "Sabanilla",
        "latitude": "17.30308000",
        "longitude": "-92.58368000",
        "country": "Mexico",
        "country_id": 142
    },
    {
        "id": 73193,
        "name": "Sabanillas",
        "latitude": "17.00038000",
        "longitude": "-99.70266000",
        "country": "Mexico",
        "country_id": 142
    },
    {
        "id": 80469,
        "name": "Sabanitas",
        "latitude": "9.34269000",
        "longitude": "-79.80961000",
        "country": "Panama",
        "country_id": 170
    },
    {
        "id": 133739,
        "name": "Sabar Kantha",
        "latitude": "23.62974000",
        "longitude": "73.00197000",
        "country": "India",
        "country_id": 101
    },
    {
        "id": 14366,
        "name": "Sabará",
        "latitude": "-19.85393000",
        "longitude": "-43.78326000",
        "country": "Brazil",
        "country_id": 31
    },
    {
        "id": 96219,
        "name": "Sabasa",
        "latitude": "47.20174000",
        "longitude": "25.81760000",
        "country": "Romania",
        "country_id": 181
    },
    {
        "id": 150374,
        "name": "Sabashahr",
        "latitude": "35.58323760",
        "longitude": "51.08146840",
        "country": "Iran",
        "country_id": 103
    },
    {
        "id": 133741,
        "name": "Sabathu",
        "latitude": "30.97494000",
        "longitude": "76.99137000",
        "country": "India",
        "country_id": 101
    },
    {
        "id": 125566,
        "name": "Sabattus",
        "latitude": "44.11980000",
        "longitude": "-70.10755000",
        "country": "United States",
        "country_id": 233
    },
    {
        "id": 59711,
        "name": "Sabaudia",
        "latitude": "41.30025000",
        "longitude": "13.02815000",
        "country": "Italy",
        "country_id": 107
    },
    {
        "id": 59712,
        "name": "Sabbia",
        "latitude": "45.85720000",
        "longitude": "8.23580000",
        "country": "Italy",
        "country_id": 107
    },
    {
        "id": 59713,
        "name": "Sabbio Chiese",
        "latitude": "45.65589000",
        "longitude": "10.42193000",
        "country": "Italy",
        "country_id": 107
    },
    {
        "id": 59714,
        "name": "Sabbionara",
        "latitude": "45.74152000",
        "longitude": "10.95740000",
        "country": "Italy",
        "country_id": 107
    },
    {
        "id": 59715,
        "name": "Sabbioneta",
        "latitude": "44.99787000",
        "longitude": "10.48848000",
        "country": "Italy",
        "country_id": 107
    },
    {
        "id": 51159,
        "name": "Sabden",
        "latitude": "53.83355000",
        "longitude": "-2.33728000",
        "country": "United Kingdom",
        "country_id": 232
    },
    {
        "id": 36723,
        "name": "Sabero",
        "latitude": "42.83593000",
        "longitude": "-5.14875000",
        "country": "Spain",
        "country_id": 207
    },
    {
        "id": 125567,
        "name": "Sabetha",
        "latitude": "39.90222000",
        "longitude": "-95.80082000",
        "country": "United States",
        "country_id": 233
    },
    {
        "id": 67028,
        "name": "Sabhā",
        "latitude": "27.03766000",
        "longitude": "14.42832000",
        "country": "Libya",
        "country_id": 124
    },
    {
        "id": 52297,
        "name": "Sabi",
        "latitude": "13.23333000",
        "longitude": "-14.20000000",
        "country": "Gambia The",
        "country_id": 80
    },
    {
        "id": 73194,
        "name": "Sabidos",
        "latitude": "18.35716000",
        "longitude": "-88.58743000",
        "country": "Mexico",
        "country_id": 142
    },
    {
        "id": 66955,
        "name": "Sabile",
        "latitude": "57.04577000",
        "longitude": "22.57261000",
        "country": "Latvia",
        "country_id": 120
    },
    {
        "id": 141682,
        "name": "Sabina",
        "latitude": "39.48867000",
        "longitude": "-83.63687000",
        "country": "United States",
        "country_id": 233
    },
    {
        "id": 125568,
        "name": "Sabinal",
        "latitude": "29.31746000",
        "longitude": "-99.46644000",
        "country": "United States",
        "country_id": 233
    },
    {
        "id": 73195,
        "name": "Sabinalito",
        "latitude": "15.70186000",
        "longitude": "-91.98636000",
        "country": "Mexico",
        "country_id": 142
    },
    {
        "id": 73196,
        "name": "Sabinas",
        "latitude": "27.85591000",
        "longitude": "-101.11738000",
        "country": "Mexico",
        "country_id": 142
    },
    {
        "id": 149814,
        "name": "Sabinas Hidalgo",
        "latitude": "26.49833333",
        "longitude": "-100.18111111",
        "country": "Mexico",
        "country_id": 142
    },
    {
        "id": 125569,
        "name": "Sabine County",
        "latitude": "31.34320000",
        "longitude": "-93.85180000",
        "country": "United States",
        "country_id": 233
    },
    {
        "id": 125570,
        "name": "Sabine Parish",
        "latitude": "31.56401000",
        "longitude": "-93.55470000",
        "country": "United States",
        "country_id": 233
    },
    {
        "id": 14367,
        "name": "Sabino",
        "latitude": "-21.47970000",
        "longitude": "-49.57650000",
        "country": "Brazil",
        "country_id": 31
    },
    {
        "id": 104539,
        "name": "Sabinov",
        "latitude": "49.10309000",
        "longitude": "21.09880000",
        "country": "Slovakia",
        "country_id": 200
    },
    {
        "id": 101061,
        "name": "Sabinskiy Rayon",
        "latitude": "56.00000000",
        "longitude": "50.50000000",
        "country": "Russia",
        "country_id": 182
    },
    {
        "id": 14368,
        "name": "Sabinópolis",
        "latitude": "-18.64885000",
        "longitude": "-43.06554000",
        "country": "Brazil",
        "country_id": 31
    },
    {
        "id": 36724,
        "name": "Sabiote",
        "latitude": "38.06916000",
        "longitude": "-3.31448000",
        "country": "Spain",
        "country_id": 207
    },
    {
        "id": 130960,
        "name": "Sabir Al Mawadim",
        "latitude": "13.53180000",
        "longitude": "44.04620000",
        "country": "Yemen",
        "country_id": 245
    },
    {
        "id": 8161,
        "name": "Sabirabad",
        "latitude": "40.00869000",
        "longitude": "48.47701000",
        "country": "Azerbaijan",
        "country_id": 16
    },
    {
        "id": 152496,
        "name": "Sabiñán",
        "latitude": "0.00000000",
        "longitude": "0.00000000",
        "country": "Spain",
        "country_id": 207
    },
    {
        "id": 36725,
        "name": "Sabiñánigo",
        "latitude": "42.51924000",
        "longitude": "-0.36607000",
        "country": "Spain",
        "country_id": 207
    },
    {
        "id": 84372,
        "name": "Sablan",
        "latitude": "16.49300000",
        "longitude": "120.49540000",
        "country": "Philippines",
        "country_id": 174
    },
    {
        "id": 144848,
        "name": "Sablan",
        "latitude": "16.49639000",
        "longitude": "120.51748000",
        "country": "Philippines",
        "country_id": 174
    },
    {
        "id": 84373,
        "name": "Sablayan",
        "latitude": "12.83460000",
        "longitude": "120.76900000",
        "country": "Philippines",
        "country_id": 174
    },
    {
        "id": 45699,
        "name": "Sablet",
        "latitude": "44.19265000",
        "longitude": "5.00566000",
        "country": "France",
        "country_id": 75
    },
    {
        "id": 146046,
        "name": "Sablig",
        "latitude": "16.26888889",
        "longitude": "119.98777778",
        "country": "Philippines",
        "country_id": 174
    },
    {
        "id": 84374,
        "name": "Sablig",
        "latitude": "16.26887000",
        "longitude": "119.98770000",
        "country": "Philippines",
        "country_id": 174
    },
    {
        "id": 45700,
        "name": "Sablonceaux",
        "latitude": "45.70963000",
        "longitude": "-0.88806000",
        "country": "France",
        "country_id": 75
    },
    {
        "id": 45701,
        "name": "Sablons",
        "latitude": "45.03333000",
        "longitude": "-0.18333000",
        "country": "France",
        "country_id": 75
    },
    {
        "id": 45702,
        "name": "Sablons",
        "latitude": "45.32104000",
        "longitude": "4.77449000",
        "country": "France",
        "country_id": 75
    },
    {
        "id": 45703,
        "name": "Sablé-sur-Sarthe",
        "latitude": "47.83765000",
        "longitude": "-0.33294000",
        "country": "France",
        "country_id": 75
    },
    {
        "id": 88039,
        "name": "Sabnie",
        "latitude": "52.50097000",
        "longitude": "22.30697000",
        "country": "Poland",
        "country_id": 176
    },
    {
        "id": 101062,
        "name": "Sabnova",
        "latitude": "42.06316000",
        "longitude": "48.25326000",
        "country": "Russia",
        "country_id": 182
    },
    {
        "id": 14369,
        "name": "Saboeiro",
        "latitude": "-6.47813000",
        "longitude": "-39.88569000",
        "country": "Brazil",
        "country_id": 31
    },
    {
        "id": 21315,
        "name": "Saboyá",
        "latitude": "5.69636000",
        "longitude": "-73.76932000",
        "country": "Colombia",
        "country_id": 48
    },
    {
        "id": 45704,
        "name": "Sabran",
        "latitude": "44.15040000",
        "longitude": "4.54820000",
        "country": "France",
        "country_id": 75
    },
    {
        "id": 45705,
        "name": "Sabres",
        "latitude": "44.14896000",
        "longitude": "-0.74123000",
        "country": "France",
        "country_id": 75
    },
    {
        "id": 30863,
        "name": "Sabro",
        "latitude": "56.21333000",
        "longitude": "10.03441000",
        "country": "Denmark",
        "country_id": 59
    },
    {
        "id": 89480,
        "name": "Sabrosa",
        "latitude": "41.26702000",
        "longitude": "-7.57601000",
        "country": "Portugal",
        "country_id": 177
    },
    {
        "id": 133740,
        "name": "Sabrum",
        "latitude": "23.00153000",
        "longitude": "91.72427000",
        "country": "India",
        "country_id": 101
    },
    {
        "id": 145280,
        "name": "Sabtang",
        "latitude": "20.33333333",
        "longitude": "121.86666667",
        "country": "Philippines",
        "country_id": 174
    },
    {
        "id": 84375,
        "name": "Sabtang",
        "latitude": "20.33566000",
        "longitude": "121.87157000",
        "country": "Philippines",
        "country_id": 174
    },
    {
        "id": 143594,
        "name": "Sabugal",
        "latitude": "40.35000000",
        "longitude": "-7.08333333",
        "country": "Portugal",
        "country_id": 177
    },
    {
        "id": 143595,
        "name": "Sabugueiro",
        "latitude": "40.40194444",
        "longitude": "-7.63972222",
        "country": "Portugal",
        "country_id": 177
    },
    {
        "id": 149006,
        "name": "Sabuhah",
        "latitude": "21.58330000",
        "longitude": "40.11670000",
        "country": "Saudi Arabia",
        "country_id": 194
    },
    {
        "id": 8162,
        "name": "Sabunçu",
        "latitude": "40.44250000",
        "longitude": "49.94806000",
        "country": "Azerbaijan",
        "country_id": 16
    },
    {
        "id": 134762,
        "name": "Sabzevar",
        "latitude": "36.21260000",
        "longitude": "57.68191000",
        "country": "Iran",
        "country_id": 103
    },
    {
        "id": 54205,
        "name": "Sabá",
        "latitude": "15.46667000",
        "longitude": "-86.25000000",
        "country": "Honduras",
        "country_id": 97
    },
    {
        "id": 14370,
        "name": "Sabáudia",
        "latitude": "-23.36584000",
        "longitude": "-51.60539000",
        "country": "Brazil",
        "country_id": 31
    },
    {
        "id": 125571,
        "name": "Sac City",
        "latitude": "42.42220000",
        "longitude": "-94.98971000",
        "country": "United States",
        "country_id": 233
    },
    {
        "id": 125572,
        "name": "Sac County",
        "latitude": "42.38626000",
        "longitude": "-95.10539000",
        "country": "United States",
        "country_id": 233
    },
    {
        "id": 10009,
        "name": "Sacaba",
        "latitude": "-17.39799000",
        "longitude": "-66.03825000",
        "country": "Bolivia",
        "country_id": 27
    },
    {
        "id": 73197,
        "name": "Sacalum",
        "latitude": "20.49749000",
        "longitude": "-89.59035000",
        "country": "Mexico",
        "country_id": 142
    },
    {
        "id": 1398,
        "name": "Sacanta",
        "latitude": "-31.66300000",
        "longitude": "-63.04505000",
        "country": "Argentina",
        "country_id": 11
    },
    {
        "id": 53644,
        "name": "Sacapulas",
        "latitude": "15.28801000",
        "longitude": "-91.08914000",
        "country": "Guatemala",
        "country_id": 90
    },
    {
        "id": 125573,
        "name": "Sacaton",
        "latitude": "33.07672000",
        "longitude": "-111.73930000",
        "country": "United States",
        "country_id": 233
    },
    {
        "id": 89481,
        "name": "Sacavém",
        "latitude": "38.79202000",
        "longitude": "-9.10801000",
        "country": "Portugal",
        "country_id": 177
    },
    {
        "id": 143596,
        "name": "Sacavém",
        "latitude": "38.79442000",
        "longitude": "-9.10533000",
        "country": "Portugal",
        "country_id": 177
    },
    {
        "id": 36726,
        "name": "Sacañet",
        "latitude": "39.86667000",
        "longitude": "-0.71667000",
        "country": "Spain",
        "country_id": 207
    },
    {
        "id": 59716,
        "name": "Sacca",
        "latitude": "45.89953000",
        "longitude": "10.22008000",
        "country": "Italy",
        "country_id": 107
    },
    {
        "id": 59717,
        "name": "Sacco",
        "latitude": "40.37671000",
        "longitude": "15.37783000",
        "country": "Italy",
        "country_id": 107
    },
    {
        "id": 59718,
        "name": "Saccolongo",
        "latitude": "45.40152000",
        "longitude": "11.74863000",
        "country": "Italy",
        "country_id": 107
    },
    {
        "id": 36727,
        "name": "Sacecorbo",
        "latitude": "40.83280000",
        "longitude": "-2.41838000",
        "country": "Spain",
        "country_id": 207
    },
    {
        "id": 36728,
        "name": "Saceda-Trasierra",
        "latitude": "40.15525000",
        "longitude": "-2.85369000",
        "country": "Spain",
        "country_id": 207
    },
    {
        "id": 36729,
        "name": "Sacedón",
        "latitude": "40.48076000",
        "longitude": "-2.73337000",
        "country": "Spain",
        "country_id": 207
    },
    {
        "id": 36730,
        "name": "Saceruela",
        "latitude": "38.94382000",
        "longitude": "-4.60768000",
        "country": "Spain",
        "country_id": 207
    },
    {
        "id": 147551,
        "name": "Sachendi",
        "latitude": "26.37116500",
        "longitude": "80.11230000",
        "country": "India",
        "country_id": 101
    },
    {
        "id": 65476,
        "name": "Sacheon-si",
        "latitude": "35.00385000",
        "longitude": "128.06857000",
        "country": "South Korea",
        "country_id": 116
    },
    {
        "id": 59719,
        "name": "Sachet",
        "latitude": "46.36982000",
        "longitude": "11.93129000",
        "country": "Italy",
        "country_id": 107
    },
    {
        "id": 133742,
        "name": "Sachin",
        "latitude": "21.08718000",
        "longitude": "72.88153000",
        "country": "India",
        "country_id": 101
    },
    {
        "id": 101063,
        "name": "Sachkovichi",
        "latitude": "52.34590000",
        "longitude": "32.22460000",
        "country": "Russia",
        "country_id": 182
    },
    {
        "id": 125574,
        "name": "Sachse",
        "latitude": "32.97623000",
        "longitude": "-96.59527000",
        "country": "United States",
        "country_id": 233
    },
    {
        "id": 18418,
        "name": "Sachseln",
        "latitude": "46.86718000",
        "longitude": "8.23344000",
        "country": "Switzerland",
        "country_id": 214
    },
    {
        "id": 28821,
        "name": "Sachsen",
        "latitude": "49.28999000",
        "longitude": "10.65971000",
        "country": "Germany",
        "country_id": 82
    },
    {
        "id": 3231,
        "name": "Sachsenburg",
        "latitude": "46.82917000",
        "longitude": "13.35500000",
        "country": "Austria",
        "country_id": 15
    },
    {
        "id": 28822,
        "name": "Sachsenhagen",
        "latitude": "52.39734000",
        "longitude": "9.26791000",
        "country": "Germany",
        "country_id": 82
    },
    {
        "id": 28823,
        "name": "Sachsenhausen",
        "latitude": "51.24338000",
        "longitude": "9.00973000",
        "country": "Germany",
        "country_id": 82
    },
    {
        "id": 28824,
        "name": "Sachsenheim",
        "latitude": "48.96000000",
        "longitude": "9.06472000",
        "country": "Germany",
        "country_id": 82
    },
    {
        "id": 28825,
        "name": "Sachsenkam",
        "latitude": "47.80543000",
        "longitude": "11.64396000",
        "country": "Germany",
        "country_id": 82
    },
    {
        "id": 45706,
        "name": "Saché",
        "latitude": "47.24707000",
        "longitude": "0.54455000",
        "country": "France",
        "country_id": 75
    },
    {
        "id": 52114,
        "name": "Sach’khere",
        "latitude": "42.34528000",
        "longitude": "43.41944000",
        "country": "Georgia",
        "country_id": 81
    },
    {
        "id": 59720,
        "name": "Sacile",
        "latitude": "45.95412000",
        "longitude": "12.50274000",
        "country": "Italy",
        "country_id": 107
    },
    {
        "id": 125575,
        "name": "Sackets Harbor",
        "latitude": "43.94617000",
        "longitude": "-76.11909000",
        "country": "United States",
        "country_id": 233
    },
    {
        "id": 16910,
        "name": "Sackville",
        "latitude": "45.91875000",
        "longitude": "-64.38455000",
        "country": "Canada",
        "country_id": 39
    },
    {
        "id": 73198,
        "name": "Saclamantón",
        "latitude": "16.78833000",
        "longitude": "-92.63500000",
        "country": "Mexico",
        "country_id": 142
    },
    {
        "id": 45707,
        "name": "Saclas",
        "latitude": "48.35845000",
        "longitude": "2.12349000",
        "country": "France",
        "country_id": 75
    },
    {
        "id": 45708,
        "name": "Saclay",
        "latitude": "48.73260000",
        "longitude": "2.16923000",
        "country": "France",
        "country_id": 75
    },
    {
        "id": 125576,
        "name": "Saco",
        "latitude": "43.50092000",
        "longitude": "-70.44283000",
        "country": "United States",
        "country_id": 233
    },
    {
        "id": 14371,
        "name": "Saco dos Limoes",
        "latitude": "-27.60864000",
        "longitude": "-48.53605000",
        "country": "Brazil",
        "country_id": 31
    },
    {
        "id": 96220,
        "name": "Sacoşu Turcesc",
        "latitude": "45.65194000",
        "longitude": "21.42889000",
        "country": "Romania",
        "country_id": 181
    },
    {
        "id": 96221,
        "name": "Sacoșu Mare",
        "latitude": "45.58503000",
        "longitude": "21.72958000",
        "country": "Romania",
        "country_id": 181
    },
    {
        "id": 36731,
        "name": "Sacramenia",
        "latitude": "41.49419000",
        "longitude": "-3.96210000",
        "country": "Spain",
        "country_id": 207
    },
    {
        "id": 14372,
        "name": "Sacramento",
        "latitude": "-19.88039000",
        "longitude": "-47.22600000",
        "country": "Brazil",
        "country_id": 31
    },
    {
        "id": 73199,
        "name": "Sacramento",
        "latitude": "27.00264000",
        "longitude": "-101.72463000",
        "country": "Mexico",
        "country_id": 142
    },
    {
        "id": 143597,
        "name": "Sacramento",
        "latitude": "38.71222222",
        "longitude": "-9.14000000",
        "country": "Portugal",
        "country_id": 177
    },
    {
        "id": 125577,
        "name": "Sacramento",
        "latitude": "38.58157000",
        "longitude": "-121.49440000",
        "country": "United States",
        "country_id": 233
    },
    {
        "id": 125578,
        "name": "Sacramento County",
        "latitude": "38.44932000",
        "longitude": "-121.34424000",
        "country": "United States",
        "country_id": 233
    },
    {
        "id": 51160,
        "name": "Sacriston",
        "latitude": "54.81769000",
        "longitude": "-1.62410000",
        "country": "United Kingdom",
        "country_id": 232
    },
    {
        "id": 59721,
        "name": "Sacrofano",
        "latitude": "42.10457000",
        "longitude": "12.44781000",
        "country": "Italy",
        "country_id": 107
    },
    {
        "id": 16911,
        "name": "Sacré-Coeur",
        "latitude": "48.22970000",
        "longitude": "-69.80061000",
        "country": "Canada",
        "country_id": 39
    },
    {
        "id": 96222,
        "name": "Sacu",
        "latitude": "45.56667000",
        "longitude": "22.11667000",
        "country": "Romania",
        "country_id": 181
    },
    {
        "id": 45709,
        "name": "Sacy-le-Grand",
        "latitude": "49.35479000",
        "longitude": "2.54461000",
        "country": "France",
        "country_id": 75
    },
    {
        "id": 36732,
        "name": "Sada",
        "latitude": "43.35619000",
        "longitude": "-8.25796000",
        "country": "Spain",
        "country_id": 207
    },
    {
        "id": 133744,
        "name": "Sadabad",
        "latitude": "27.43818000",
        "longitude": "78.03758000",
        "country": "India",
        "country_id": 101
    },
    {
        "id": 150331,
        "name": "Sadabad",
        "latitude": "29.38580150",
        "longitude": "51.11174580",
        "country": "Iran",
        "country_id": 103
    },
    {
        "id": 7103,
        "name": "Sadadeen",
        "latitude": "-23.70399000",
        "longitude": "133.90043000",
        "country": "Australia",
        "country_id": 14
    },
    {
        "id": 133743,
        "name": "Sadalgi",
        "latitude": "16.55870000",
        "longitude": "74.53211000",
        "country": "India",
        "country_id": 101
    },
    {
        "id": 59722,
        "name": "Sadali",
        "latitude": "39.81456000",
        "longitude": "9.27246000",
        "country": "Italy",
        "country_id": 107
    },
    {
        "id": 84376,
        "name": "Sadanga",
        "latitude": "17.16514000",
        "longitude": "121.01724000",
        "country": "Philippines",
        "country_id": 174
    },
    {
        "id": 144849,
        "name": "Sadanga",
        "latitude": "17.16666667",
        "longitude": "121.03333333",
        "country": "Philippines",
        "country_id": 174
    },
    {
        "id": 106672,
        "name": "Sadao",
        "latitude": "6.63883000",
        "longitude": "100.42342000",
        "country": "Thailand",
        "country_id": 219
    },
    {
        "id": 133745,
        "name": "Sadaseopet",
        "latitude": "17.61925000",
        "longitude": "77.95263000",
        "country": "India",
        "country_id": 101
    },
    {
        "id": 134059,
        "name": "Sadat",
        "latitude": "25.67117000",
        "longitude": "83.30269000",
        "country": "India",
        "country_id": 101
    },
    {
        "id": 125579,
        "name": "Saddle Brook",
        "latitude": "40.89899000",
        "longitude": "-74.09264000",
        "country": "United States",
        "country_id": 233
    },
    {
        "id": 125580,
        "name": "Saddle Brooke",
        "latitude": "32.53472000",
        "longitude": "-110.87361000",
        "country": "United States",
        "country_id": 233
    },
    {
        "id": 125581,
        "name": "Saddle River",
        "latitude": "41.03176000",
        "longitude": "-74.10209000",
        "country": "United States",
        "country_id": 233
    },
    {
        "id": 77095,
        "name": "Sade",
        "latitude": "11.35950000",
        "longitude": "10.67320000",
        "country": "Nigeria",
        "country_id": 161
    },
    {
        "id": 148800,
        "name": "Sadiliyah",
        "latitude": "16.92640000",
        "longitude": "42.83000000",
        "country": "Saudi Arabia",
        "country_id": 194
    },
    {
        "id": 96223,
        "name": "Sadina",
        "latitude": "44.41143000",
        "longitude": "25.52953000",
        "country": "Romania",
        "country_id": 181
    },
    {
        "id": 85690,
        "name": "Sadiqabad",
        "latitude": "28.30910000",
        "longitude": "70.12652000",
        "country": "Pakistan",
        "country_id": 167
    },
    {
        "id": 45710,
        "name": "Sadirac",
        "latitude": "44.78179000",
        "longitude": "-0.41334000",
        "country": "France",
        "country_id": 75
    },
    {
        "id": 88040,
        "name": "Sadki",
        "latitude": "53.16036000",
        "longitude": "17.44912000",
        "country": "Poland",
        "country_id": 176
    },
    {
        "id": 88041,
        "name": "Sadkowice",
        "latitude": "51.72517000",
        "longitude": "20.51465000",
        "country": "Poland",
        "country_id": 176
    },
    {
        "id": 7104,
        "name": "Sadleir",
        "latitude": "-33.91713000",
        "longitude": "150.89093000",
        "country": "Australia",
        "country_id": 14
    },
    {
        "id": 7105,
        "name": "Sadliers Crossing",
        "latitude": "-27.61251000",
        "longitude": "152.74577000",
        "country": "Australia",
        "country_id": 14
    },
    {
        "id": 88042,
        "name": "Sadlinki",
        "latitude": "53.66539000",
        "longitude": "18.86807000",
        "country": "Poland",
        "country_id": 176
    },
    {
        "id": 64238,
        "name": "Sado Shi",
        "latitude": "38.04439000",
        "longitude": "138.38984000",
        "country": "Japan",
        "country_id": 109
    },
    {
        "id": 23058,
        "name": "Sadov",
        "latitude": "50.26711000",
        "longitude": "12.89708000",
        "country": "Czech Republic",
        "country_id": 58
    },
    {
        "id": 96224,
        "name": "Sadova",
        "latitude": "47.53333000",
        "longitude": "25.50000000",
        "country": "Romania",
        "country_id": 181
    },
    {
        "id": 96225,
        "name": "Sadova",
        "latitude": "43.90000000",
        "longitude": "23.95000000",
        "country": "Romania",
        "country_id": 181
    },
    {
        "id": 9677,
        "name": "Sadovo",
        "latitude": "42.13178000",
        "longitude": "24.93999000",
        "country": "Bulgaria",
        "country_id": 34
    },
    {
        "id": 101064,
        "name": "Sadovoye",
        "latitude": "51.53111000",
        "longitude": "40.50194000",
        "country": "Russia",
        "country_id": 182
    },
    {
        "id": 101065,
        "name": "Sadovoye",
        "latitude": "47.77720000",
        "longitude": "44.52080000",
        "country": "Russia",
        "country_id": 182
    },
    {
        "id": 110399,
        "name": "Sadovoye",
        "latitude": "45.31037000",
        "longitude": "34.65260000",
        "country": "Ukraine",
        "country_id": 230
    },
    {
        "id": 101066,
        "name": "Sadovyy",
        "latitude": "55.13610000",
        "longitude": "82.96590000",
        "country": "Russia",
        "country_id": 182
    },
    {
        "id": 88043,
        "name": "Sadowie",
        "latitude": "50.85261000",
        "longitude": "21.36884000",
        "country": "Poland",
        "country_id": 176
    },
    {
        "id": 88044,
        "name": "Sadowne",
        "latitude": "52.64124000",
        "longitude": "21.84563000",
        "country": "Poland",
        "country_id": 176
    },
    {
        "id": 153246,
        "name": "Sadr City",
        "latitude": "33.37692330",
        "longitude": "44.40446380",
        "country": "Iraq",
        "country_id": 104
    },
    {
        "id": 150663,
        "name": "Sadra",
        "latitude": "29.80475780",
        "longitude": "52.45825710",
        "country": "Iran",
        "country_id": 103
    },
    {
        "id": 134058,
        "name": "Sadri",
        "latitude": "25.18555000",
        "longitude": "73.45288000",
        "country": "India",
        "country_id": 101
    },
    {
        "id": 84377,
        "name": "Sadsadan",
        "latitude": "16.93330000",
        "longitude": "120.86670000",
        "country": "Philippines",
        "country_id": 174
    },
    {
        "id": 144850,
        "name": "Sadsadan",
        "latitude": "16.93333333",
        "longitude": "120.86666667",
        "country": "Philippines",
        "country_id": 174
    },
    {
        "id": 84378,
        "name": "Sadsalan",
        "latitude": "6.82906000",
        "longitude": "124.60893000",
        "country": "Philippines",
        "country_id": 174
    },
    {
        "id": 144073,
        "name": "Sadsalan",
        "latitude": "6.82906000",
        "longitude": "124.60893000",
        "country": "Philippines",
        "country_id": 174
    },
    {
        "id": 23059,
        "name": "Sadská",
        "latitude": "50.13596000",
        "longitude": "14.98633000",
        "country": "Czech Republic",
        "country_id": 58
    },
    {
        "id": 96226,
        "name": "Sadu",
        "latitude": "45.66667000",
        "longitude": "24.18333000",
        "country": "Romania",
        "country_id": 181
    },
    {
        "id": 110400,
        "name": "Sadzhavka",
        "latitude": "48.56603000",
        "longitude": "24.78820000",
        "country": "Ukraine",
        "country_id": 230
    },
    {
        "id": 9678,
        "name": "Saedinenie",
        "latitude": "42.26667000",
        "longitude": "24.55000000",
        "country": "Bulgaria",
        "country_id": 34
    },
    {
        "id": 96227,
        "name": "Saelele",
        "latitude": "43.85577000",
        "longitude": "24.72789000",
        "country": "Romania",
        "country_id": 181
    },
    {
        "id": 36733,
        "name": "Saelices",
        "latitude": "39.92061000",
        "longitude": "-2.80502000",
        "country": "Spain",
        "country_id": 207
    },
    {
        "id": 36735,
        "name": "Saelices de la Sal",
        "latitude": "40.90723000",
        "longitude": "-2.32325000",
        "country": "Spain",
        "country_id": 207
    },
    {
        "id": 36734,
        "name": "Saelices de Mayorga",
        "latitude": "42.21206000",
        "longitude": "-5.20534000",
        "country": "Spain",
        "country_id": 207
    },
    {
        "id": 36736,
        "name": "Saelices el Chico",
        "latitude": "40.66998000",
        "longitude": "-6.63271000",
        "country": "Spain",
        "country_id": 207
    },
    {
        "id": 28826,
        "name": "Saerbeck",
        "latitude": "52.17372000",
        "longitude": "7.63395000",
        "country": "Germany",
        "country_id": 82
    },
    {
        "id": 66833,
        "name": "Saeul",
        "latitude": "49.72722000",
        "longitude": "5.98639000",
        "country": "Luxembourg",
        "country_id": 127
    },
    {
        "id": 147318,
        "name": "Safa Riz",
        "latitude": "35.40694444",
        "longitude": "48.30611111",
        "country": "Iran",
        "country_id": 103
    },
    {
        "id": 150378,
        "name": "Safadasht",
        "latitude": "35.68448900",
        "longitude": "50.82465800",
        "country": "Iran",
        "country_id": 103
    },
    {
        "id": 31858,
        "name": "Safaga",
        "latitude": "26.74906000",
        "longitude": "33.93891000",
        "country": "Egypt",
        "country_id": 65
    },
    {
        "id": 150766,
        "name": "Safaiyeh",
        "latitude": "30.82808130",
        "longitude": "55.80301480",
        "country": "Iran",
        "country_id": 103
    },
    {
        "id": 101067,
        "name": "Safakulevo",
        "latitude": "54.99010000",
        "longitude": "62.54420000",
        "country": "Russia",
        "country_id": 182
    },
    {
        "id": 101068,
        "name": "Safakulevskiy Rayon",
        "latitude": "54.91667000",
        "longitude": "62.50000000",
        "country": "Russia",
        "country_id": 182
    },
    {
        "id": 150645,
        "name": "Safashahr",
        "latitude": "30.61431720",
        "longitude": "53.17833400",
        "country": "Iran",
        "country_id": 103
    },
    {
        "id": 57553,
        "name": "Safed",
        "latitude": "32.96465000",
        "longitude": "35.49600000",
        "country": "Israel",
        "country_id": 106
    },
    {
        "id": 18419,
        "name": "Safenwil",
        "latitude": "47.32163000",
        "longitude": "7.98254000",
        "country": "Switzerland",
        "country_id": 214
    },
    {
        "id": 7106,
        "name": "Safety Bay",
        "latitude": "-32.30463000",
        "longitude": "115.74213000",
        "country": "Australia",
        "country_id": 14
    },
    {
        "id": 7107,
        "name": "Safety Beach",
        "latitude": "-38.31535000",
        "longitude": "145.00027000",
        "country": "Australia",
        "country_id": 14
    },
    {
        "id": 125582,
        "name": "Safety Harbor",
        "latitude": "27.99085000",
        "longitude": "-82.69316000",
        "country": "United States",
        "country_id": 233
    },
    {
        "id": 28827,
        "name": "Saffig",
        "latitude": "50.38333000",
        "longitude": "7.41667000",
        "country": "Germany",
        "country_id": 82
    },
    {
        "id": 125583,
        "name": "Safford",
        "latitude": "32.83395000",
        "longitude": "-109.70758000",
        "country": "United States",
        "country_id": 233
    },
    {
        "id": 51161,
        "name": "Saffron Walden",
        "latitude": "52.02337000",
        "longitude": "0.24234000",
        "country": "United Kingdom",
        "country_id": 232
    },
    {
        "id": 45711,
        "name": "Saffré",
        "latitude": "47.50143000",
        "longitude": "-1.57856000",
        "country": "France",
        "country_id": 75
    },
    {
        "id": 63182,
        "name": "Safi",
        "latitude": "31.03608000",
        "longitude": "35.46544000",
        "country": "Jordan",
        "country_id": 111
    },
    {
        "id": 67197,
        "name": "Safi",
        "latitude": "32.16667000",
        "longitude": "-8.83333000",
        "country": "Morocco",
        "country_id": 149
    },
    {
        "id": 150541,
        "name": "Safiabad",
        "latitude": "32.26002660",
        "longitude": "48.40730660",
        "country": "Iran",
        "country_id": 103
    },
    {
        "id": 150493,
        "name": "Safiabad",
        "latitude": "36.69452330",
        "longitude": "57.92146670",
        "country": "Iran",
        "country_id": 103
    },
    {
        "id": 133746,
        "name": "Safidon",
        "latitude": "29.40596000",
        "longitude": "76.67042000",
        "country": "India",
        "country_id": 101
    },
    {
        "id": 133747,
        "name": "Safipur",
        "latitude": "26.73783000",
        "longitude": "80.34350000",
        "country": "India",
        "country_id": 101
    },
    {
        "id": 105042,
        "name": "Safita District",
        "latitude": "34.80419000",
        "longitude": "36.12293000",
        "country": "Syria",
        "country_id": 215
    },
    {
        "id": 101069,
        "name": "Safonovo",
        "latitude": "69.06043000",
        "longitude": "33.29523000",
        "country": "Russia",
        "country_id": 182
    },
    {
        "id": 101070,
        "name": "Safonovo",
        "latitude": "55.11087000",
        "longitude": "33.23292000",
        "country": "Russia",
        "country_id": 182
    },
    {
        "id": 101071,
        "name": "Safonovskiy Rayon",
        "latitude": "55.16667000",
        "longitude": "33.16667000",
        "country": "Russia",
        "country_id": 182
    },
    {
        "id": 130656,
        "name": "Safotu",
        "latitude": "-13.45132000",
        "longitude": "-172.40177000",
        "country": "Samoa",
        "country_id": 191
    },
    {
        "id": 108372,
        "name": "Safranbolu",
        "latitude": "41.25083000",
        "longitude": "32.69417000",
        "country": "Turkey",
        "country_id": 225
    },
    {
        "id": 143598,
        "name": "Safurdão",
        "latitude": "40.63694444",
        "longitude": "-7.06888889",
        "country": "Portugal",
        "country_id": 177
    },
    {
        "id": 125584,
        "name": "Sag Harbor",
        "latitude": "40.99788000",
        "longitude": "-72.29258000",
        "country": "United States",
        "country_id": 233
    },
    {
        "id": 20049,
        "name": "Saga",
        "latitude": "29.32367000",
        "longitude": "85.22601000",
        "country": "China",
        "country_id": 45
    },
    {
        "id": 64239,
        "name": "Saga",
        "latitude": "33.23333000",
        "longitude": "130.30000000",
        "country": "Japan",
        "country_id": 109
    },
    {
        "id": 64240,
        "name": "Saga Shi",
        "latitude": "33.32558000",
        "longitude": "130.26430000",
        "country": "Japan",
        "country_id": 109
    },
    {
        "id": 84379,
        "name": "Sagacad",
        "latitude": "7.68611000",
        "longitude": "123.34056000",
        "country": "Philippines",
        "country_id": 174
    },
    {
        "id": 84380,
        "name": "Sagada",
        "latitude": "17.08400000",
        "longitude": "120.89960000",
        "country": "Philippines",
        "country_id": 174
    },
    {
        "id": 144851,
        "name": "Sagada",
        "latitude": "17.08333333",
        "longitude": "120.90000000",
        "country": "Philippines",
        "country_id": 174
    },
    {
        "id": 125585,
        "name": "Sagadahoc County",
        "latitude": "43.91173000",
        "longitude": "-69.83931000",
        "country": "United States",
        "country_id": 233
    },
    {
        "id": 64241,
        "name": "Sagae",
        "latitude": "38.37250000",
        "longitude": "140.27250000",
        "country": "Japan",
        "country_id": 109
    },
    {
        "id": 64242,
        "name": "Sagae-shi",
        "latitude": "38.45000000",
        "longitude": "140.23333000",
        "country": "Japan",
        "country_id": 109
    },
    {
        "id": 67685,
        "name": "Sagaing",
        "latitude": "21.87870000",
        "longitude": "95.97965000",
        "country": "Myanmar",
        "country_id": 151
    },
    {
        "id": 67623,
        "name": "Sagalo",
        "latitude": "12.20000000",
        "longitude": "-10.70000000",
        "country": "Mali",
        "country_id": 134
    },
    {
        "id": 59723,
        "name": "Sagama",
        "latitude": "40.26155000",
        "longitude": "8.57752000",
        "country": "Italy",
        "country_id": 107
    },
    {
        "id": 64243,
        "name": "Sagamihara-shi",
        "latitude": "35.55000000",
        "longitude": "139.35000000",
        "country": "Japan",
        "country_id": 109
    },
    {
        "id": 125586,
        "name": "Sagamore",
        "latitude": "41.77011000",
        "longitude": "-70.52836000",
        "country": "United States",
        "country_id": 233
    },
    {
        "id": 101072,
        "name": "Sagan-Nur",
        "latitude": "51.34360000",
        "longitude": "108.44490000",
        "country": "Russia",
        "country_id": 182
    },
    {
        "id": 64866,
        "name": "Sagana",
        "latitude": "-0.66806000",
        "longitude": "37.20875000",
        "country": "Kenya",
        "country_id": 113
    },
    {
        "id": 84381,
        "name": "Sagana",
        "latitude": "15.56890000",
        "longitude": "121.15220000",
        "country": "Philippines",
        "country_id": 174
    },
    {
        "id": 84382,
        "name": "Sagana",
        "latitude": "12.72252000",
        "longitude": "121.48672000",
        "country": "Philippines",
        "country_id": 174
    },
    {
        "id": 145634,
        "name": "Sagana",
        "latitude": "15.56888889",
        "longitude": "121.15222222",
        "country": "Philippines",
        "country_id": 174
    },
    {
        "id": 84383,
        "name": "Sagang",
        "latitude": "10.36120000",
        "longitude": "123.07220000",
        "country": "Philippines",
        "country_id": 174
    },
    {
        "id": 134060,
        "name": "Sagar",
        "latitude": "14.16498000",
        "longitude": "75.02901000",
        "country": "India",
        "country_id": 101
    },
    {
        "id": 134061,
        "name": "Sagar",
        "latitude": "23.75000000",
        "longitude": "78.75000000",
        "country": "India",
        "country_id": 101
    },
    {
        "id": 64244,
        "name": "Sagara",
        "latitude": "34.68503000",
        "longitude": "138.20461000",
        "country": "Japan",
        "country_id": 109
    },
    {
        "id": 28828,
        "name": "Sagard",
        "latitude": "54.52556000",
        "longitude": "13.55387000",
        "country": "Germany",
        "country_id": 82
    },
    {
        "id": 52115,
        "name": "Sagarejo",
        "latitude": "41.73397000",
        "longitude": "45.33149000",
        "country": "Georgia",
        "country_id": 81
    },
    {
        "id": 144709,
        "name": "Sagasa",
        "latitude": "6.77405000",
        "longitude": "124.57408000",
        "country": "Philippines",
        "country_id": 174
    },
    {
        "id": 84384,
        "name": "Sagasa",
        "latitude": "6.77405000",
        "longitude": "124.57408000",
        "country": "Philippines",
        "country_id": 174
    },
    {
        "id": 84385,
        "name": "Sagasa",
        "latitude": "10.46800000",
        "longitude": "122.89390000",
        "country": "Philippines",
        "country_id": 174
    },
    {
        "id": 133748,
        "name": "Sagauli",
        "latitude": "26.76390000",
        "longitude": "84.74341000",
        "country": "India",
        "country_id": 101
    },
    {
        "id": 84386,
        "name": "Sagay",
        "latitude": "9.10590000",
        "longitude": "124.72430000",
        "country": "Philippines",
        "country_id": 174
    },
    {
        "id": 84387,
        "name": "Sagay",
        "latitude": "10.94472000",
        "longitude": "123.42417000",
        "country": "Philippines",
        "country_id": 174
    },
    {
        "id": 84388,
        "name": "Sagbayan",
        "latitude": "9.91440000",
        "longitude": "124.09190000",
        "country": "Philippines",
        "country_id": 174
    },
    {
        "id": 57389,
        "name": "Saggart",
        "latitude": "53.28028000",
        "longitude": "-6.44444000",
        "country": "Ireland",
        "country_id": 105
    },
    {
        "id": 125587,
        "name": "Saginaw",
        "latitude": "32.86013000",
        "longitude": "-97.36391000",
        "country": "United States",
        "country_id": 233
    },
    {
        "id": 125588,
        "name": "Saginaw",
        "latitude": "43.41947000",
        "longitude": "-83.95081000",
        "country": "United States",
        "country_id": 233
    },
    {
        "id": 125589,
        "name": "Saginaw County",
        "latitude": "43.33503000",
        "longitude": "-84.05319000",
        "country": "United States",
        "country_id": 233
    },
    {
        "id": 125590,
        "name": "Saginaw Township North",
        "latitude": "43.46004000",
        "longitude": "-84.00674000",
        "country": "United States",
        "country_id": 233
    },
    {
        "id": 59724,
        "name": "Sagliano Micca",
        "latitude": "45.62576000",
        "longitude": "8.04332000",
        "country": "Italy",
        "country_id": 107
    },
    {
        "id": 96228,
        "name": "Sagna",
        "latitude": "46.98333000",
        "longitude": "27.01667000",
        "country": "Romania",
        "country_id": 181
    },
    {
        "id": 84389,
        "name": "Sagnay",
        "latitude": "13.60290000",
        "longitude": "123.52250000",
        "country": "Philippines",
        "country_id": 174
    },
    {
        "id": 101073,
        "name": "Sagopshi",
        "latitude": "43.48515000",
        "longitude": "44.59063000",
        "country": "Russia",
        "country_id": 182
    },
    {
        "id": 84390,
        "name": "Sagpon",
        "latitude": "13.15000000",
        "longitude": "123.73333000",
        "country": "Philippines",
        "country_id": 174
    },
    {
        "id": 36737,
        "name": "Sagra",
        "latitude": "38.81102000",
        "longitude": "-0.06559000",
        "country": "Spain",
        "country_id": 207
    },
    {
        "id": 84391,
        "name": "Sagrada",
        "latitude": "13.53010000",
        "longitude": "123.45270000",
        "country": "Philippines",
        "country_id": 174
    },
    {
        "id": 148447,
        "name": "Sagrada Familia",
        "latitude": "-35.00000000",
        "longitude": "-71.38333333",
        "country": "Chile",
        "country_id": 44
    },
    {
        "id": 84392,
        "name": "Sagrada Familia",
        "latitude": "13.26900000",
        "longitude": "123.39770000",
        "country": "Philippines",
        "country_id": 174
    },
    {
        "id": 14373,
        "name": "Sagrada Família",
        "latitude": "-27.71478000",
        "longitude": "-53.12850000",
        "country": "Brazil",
        "country_id": 31
    },
    {
        "id": 152545,
        "name": "Sagrada La",
        "latitude": "0.00000000",
        "longitude": "0.00000000",
        "country": "Spain",
        "country_id": 207
    },
    {
        "id": 59725,
        "name": "Sagrado",
        "latitude": "45.87393000",
        "longitude": "13.48418000",
        "country": "Italy",
        "country_id": 107
    },
    {
        "id": 14374,
        "name": "Sagres",
        "latitude": "-21.86529000",
        "longitude": "-51.00502000",
        "country": "Brazil",
        "country_id": 31
    },
    {
        "id": 89482,
        "name": "Sagres",
        "latitude": "37.00864000",
        "longitude": "-8.94311000",
        "country": "Portugal",
        "country_id": 177
    },
    {
        "id": 59726,
        "name": "Sagron Mis",
        "latitude": "46.19471000",
        "longitude": "11.94320000",
        "country": "Italy",
        "country_id": 107
    },
    {
        "id": 21956,
        "name": "Sagua de Tánamo",
        "latitude": "20.58269000",
        "longitude": "-75.24116000",
        "country": "Cuba",
        "country_id": 56
    },
    {
        "id": 21957,
        "name": "Sagua la Grande",
        "latitude": "22.80667000",
        "longitude": "-80.07556000",
        "country": "Cuba",
        "country_id": 56
    },
    {
        "id": 125591,
        "name": "Saguache",
        "latitude": "38.08750000",
        "longitude": "-106.14197000",
        "country": "United States",
        "country_id": 233
    },
    {
        "id": 125592,
        "name": "Saguache County",
        "latitude": "38.08055000",
        "longitude": "-106.28156000",
        "country": "United States",
        "country_id": 233
    },
    {
        "id": 146047,
        "name": "Sagud-Bahley",
        "latitude": "16.11694444",
        "longitude": "120.39111111",
        "country": "Philippines",
        "country_id": 174
    },
    {
        "id": 84393,
        "name": "Sagud-Bahley",
        "latitude": "16.11693000",
        "longitude": "120.39105000",
        "country": "Philippines",
        "country_id": 174
    },
    {
        "id": 145281,
        "name": "Saguday",
        "latitude": "16.51666667",
        "longitude": "121.60000000",
        "country": "Philippines",
        "country_id": 174
    },
    {
        "id": 84394,
        "name": "Saguday",
        "latitude": "16.54280000",
        "longitude": "121.56380000",
        "country": "Philippines",
        "country_id": 174
    },
    {
        "id": 16912,
        "name": "Saguenay",
        "latitude": "48.41675000",
        "longitude": "-71.06573000",
        "country": "Canada",
        "country_id": 39
    },
    {
        "id": 144710,
        "name": "Saguiaran",
        "latitude": "8.03333333",
        "longitude": "124.26666667",
        "country": "Philippines",
        "country_id": 174
    },
    {
        "id": 84395,
        "name": "Saguiaran",
        "latitude": "8.03306000",
        "longitude": "124.27000000",
        "country": "Philippines",
        "country_id": 174
    },
    {
        "id": 84396,
        "name": "Saguing",
        "latitude": "6.98028000",
        "longitude": "125.07806000",
        "country": "Philippines",
        "country_id": 174
    },
    {
        "id": 144074,
        "name": "Saguing",
        "latitude": "6.98027778",
        "longitude": "125.07805556",
        "country": "Philippines",
        "country_id": 174
    },
    {
        "id": 146048,
        "name": "Sagunto",
        "latitude": "16.20083333",
        "longitude": "120.51500000",
        "country": "Philippines",
        "country_id": 174
    },
    {
        "id": 84397,
        "name": "Sagunto",
        "latitude": "16.20070000",
        "longitude": "120.51490000",
        "country": "Philippines",
        "country_id": 174
    },
    {
        "id": 36739,
        "name": "Sagunto",
        "latitude": "39.68333000",
        "longitude": "-0.26667000",
        "country": "Spain",
        "country_id": 207
    },
    {
        "id": 152961,
        "name": "Sagunto/Sagunt",
        "latitude": "0.00000000",
        "longitude": "0.00000000",
        "country": "Spain",
        "country_id": 207
    },
    {
        "id": 84398,
        "name": "Sagurong",
        "latitude": "13.78050000",
        "longitude": "122.95940000",
        "country": "Philippines",
        "country_id": 174
    },
    {
        "id": 79473,
        "name": "Sagvåg",
        "latitude": "59.78139000",
        "longitude": "5.38996000",
        "country": "Norway",
        "country_id": 165
    },
    {
        "id": 45712,
        "name": "Sagy",
        "latitude": "46.60129000",
        "longitude": "5.31045000",
        "country": "France",
        "country_id": 75
    },
    {
        "id": 45713,
        "name": "Sagy",
        "latitude": "49.04988000",
        "longitude": "1.95216000",
        "country": "France",
        "country_id": 75
    },
    {
        "id": 150716,
        "name": "Sagz Abad",
        "latitude": "35.76612540",
        "longitude": "49.91882790",
        "country": "Iran",
        "country_id": 103
    },
    {
        "id": 36740,
        "name": "Sagàs",
        "latitude": "42.05000000",
        "longitude": "1.96667000",
        "country": "Spain",
        "country_id": 207
    },
    {
        "id": 130961,
        "name": "Sah",
        "latitude": "15.53420000",
        "longitude": "48.89550000",
        "country": "Yemen",
        "country_id": 245
    },
    {
        "id": 65477,
        "name": "Saha-gu",
        "latitude": "35.08552000",
        "longitude": "128.98725000",
        "country": "South Korea",
        "country_id": 116
    },
    {
        "id": 21316,
        "name": "Sahagún",
        "latitude": "8.94617000",
        "longitude": "-75.44275000",
        "country": "Colombia",
        "country_id": 48
    },
    {
        "id": 36741,
        "name": "Sahagún",
        "latitude": "42.37085000",
        "longitude": "-5.02942000",
        "country": "Spain",
        "country_id": 207
    },
    {
        "id": 153330,
        "name": "Sahalahti",
        "latitude": "61.46666667",
        "longitude": "24.31666667",
        "country": "Finland",
        "country_id": 74
    },
    {
        "id": 147319,
        "name": "Sahamabad",
        "latitude": "34.55388889",
        "longitude": "48.30472222",
        "country": "Iran",
        "country_id": 103
    },
    {
        "id": 150110,
        "name": "Sahand",
        "latitude": "37.94212840",
        "longitude": "46.11317040",
        "country": "Iran",
        "country_id": 103
    },
    {
        "id": 142076,
        "name": "Sahapur",
        "latitude": "22.52000000",
        "longitude": "88.17000000",
        "country": "India",
        "country_id": 101
    },
    {
        "id": 133753,
        "name": "Saharanpur",
        "latitude": "29.90000000",
        "longitude": "77.68333000",
        "country": "India",
        "country_id": 101
    },
    {
        "id": 67322,
        "name": "Saharna",
        "latitude": "47.69107000",
        "longitude": "28.97458000",
        "country": "Moldova",
        "country_id": 144
    },
    {
        "id": 133749,
        "name": "Saharsa",
        "latitude": "25.87498000",
        "longitude": "86.59611000",
        "country": "India",
        "country_id": 101
    },
    {
        "id": 133750,
        "name": "Sahaspur",
        "latitude": "29.12125000",
        "longitude": "78.62273000",
        "country": "India",
        "country_id": 101
    },
    {
        "id": 133751,
        "name": "Sahaswan",
        "latitude": "28.07227000",
        "longitude": "78.75082000",
        "country": "India",
        "country_id": 101
    },
    {
        "id": 133754,
        "name": "Sahawar",
        "latitude": "27.79603000",
        "longitude": "78.83373000",
        "country": "India",
        "country_id": 101
    },
    {
        "id": 73200,
        "name": "Sahcaba",
        "latitude": "20.79174000",
        "longitude": "-89.18138000",
        "country": "Mexico",
        "country_id": 142
    },
    {
        "id": 150743,
        "name": "Saheb",
        "latitude": "36.20290110",
        "longitude": "46.45328510",
        "country": "Iran",
        "country_id": 103
    },
    {
        "id": 147552,
        "name": "Sahibabad",
        "latitude": "28.68333333",
        "longitude": "77.40000000",
        "country": "India",
        "country_id": 101
    },
    {
        "id": 133752,
        "name": "Sahibganj",
        "latitude": "24.99354000",
        "longitude": "87.67333000",
        "country": "India",
        "country_id": 101
    },
    {
        "id": 85691,
        "name": "Sahiwal",
        "latitude": "30.66595000",
        "longitude": "73.10186000",
        "country": "Pakistan",
        "country_id": 167
    },
    {
        "id": 107012,
        "name": "Sahline",
        "latitude": "35.75166000",
        "longitude": "10.71109000",
        "country": "Tunisia",
        "country_id": 224
    },
    {
        "id": 135094,
        "name": "Sahneh",
        "latitude": "34.58333000",
        "longitude": "47.51667000",
        "country": "Iran",
        "country_id": 103
    },
    {
        "id": 147553,
        "name": "Sahpau",
        "latitude": "27.43527778",
        "longitude": "78.14138889",
        "country": "India",
        "country_id": 101
    },
    {
        "id": 73201,
        "name": "Sahuaral de Otero",
        "latitude": "26.88487000",
        "longitude": "-109.73175000",
        "country": "Mexico",
        "country_id": 142
    },
    {
        "id": 73202,
        "name": "Sahuaripa",
        "latitude": "29.05408000",
        "longitude": "-109.23399000",
        "country": "Mexico",
        "country_id": 142
    },
    {
        "id": 125593,
        "name": "Sahuarita",
        "latitude": "31.95758000",
        "longitude": "-110.95565000",
        "country": "United States",
        "country_id": 233
    },
    {
        "id": 73203,
        "name": "Sahuayo",
        "latitude": "20.05792000",
        "longitude": "-102.75119000",
        "country": "Mexico",
        "country_id": 142
    },
    {
        "id": 73204,
        "name": "Sahuayo de Morelos",
        "latitude": "20.05859000",
        "longitude": "-102.71575000",
        "country": "Mexico",
        "country_id": 142
    },
    {
        "id": 152547,
        "name": "Sahugo El",
        "latitude": "0.00000000",
        "longitude": "0.00000000",
        "country": "Spain",
        "country_id": 207
    },
    {
        "id": 45714,
        "name": "Sahurs",
        "latitude": "49.35863000",
        "longitude": "0.94256000",
        "country": "France",
        "country_id": 75
    },
    {
        "id": 36742,
        "name": "Sahún",
        "latitude": "42.57590000",
        "longitude": "0.46546000",
        "country": "Spain",
        "country_id": 207
    },
    {
        "id": 106673,
        "name": "Sai Buri",
        "latitude": "6.70131000",
        "longitude": "101.61675000",
        "country": "Thailand",
        "country_id": 219
    },
    {
        "id": 153493,
        "name": "Sai Kung",
        "latitude": "22.38400000",
        "longitude": "114.27300000",
        "country": "Hong Kong S.A.R.",
        "country_id": 98
    },
    {
        "id": 106674,
        "name": "Sai Mai",
        "latitude": "13.90727000",
        "longitude": "100.65181000",
        "country": "Thailand",
        "country_id": 219
    },
    {
        "id": 67198,
        "name": "Saidia",
        "latitude": "35.08195000",
        "longitude": "-2.22897000",
        "country": "Morocco",
        "country_id": 149
    },
    {
        "id": 153247,
        "name": "Saidiya",
        "latitude": "33.26500930",
        "longitude": "44.33159340",
        "country": "Iraq",
        "country_id": 104
    },
    {
        "id": 8582,
        "name": "Saidpur",
        "latitude": "25.77769000",
        "longitude": "88.89169000",
        "country": "Bangladesh",
        "country_id": 19
    },
    {
        "id": 133755,
        "name": "Saidpur",
        "latitude": "25.53749000",
        "longitude": "83.22378000",
        "country": "India",
        "country_id": 101
    },
    {
        "id": 18420,
        "name": "Saignelégier",
        "latitude": "47.25619000",
        "longitude": "6.99648000",
        "country": "Switzerland",
        "country_id": 214
    },
    {
        "id": 45715,
        "name": "Saignon",
        "latitude": "43.86308000",
        "longitude": "5.42838000",
        "country": "France",
        "country_id": 75
    },
    {
        "id": 133756,
        "name": "Saiha",
        "latitude": "22.49183000",
        "longitude": "92.98143000",
        "country": "India",
        "country_id": 101
    },
    {
        "id": 64245,
        "name": "Saijō",
        "latitude": "33.91667000",
        "longitude": "133.18333000",
        "country": "Japan",
        "country_id": 109
    },
    {
        "id": 64246,
        "name": "Saijō-shi",
        "latitude": "33.86100000",
        "longitude": "133.10832000",
        "country": "Japan",
        "country_id": 109
    },
    {
        "id": 64247,
        "name": "Saikai-shi",
        "latitude": "32.99259000",
        "longitude": "129.68200000",
        "country": "Japan",
        "country_id": 109
    },
    {
        "id": 64248,
        "name": "Saiki",
        "latitude": "32.95000000",
        "longitude": "131.90000000",
        "country": "Japan",
        "country_id": 109
    },
    {
        "id": 64249,
        "name": "Saiki-shi",
        "latitude": "32.88598000",
        "longitude": "131.77600000",
        "country": "Japan",
        "country_id": 109
    },
    {
        "id": 45716,
        "name": "Sail-sous-Couzan",
        "latitude": "45.73482000",
        "longitude": "3.96898000",
        "country": "France",
        "country_id": 75
    },
    {
        "id": 133757,
        "name": "Sailana",
        "latitude": "23.46219000",
        "longitude": "74.92318000",
        "country": "India",
        "country_id": 101
    },
    {
        "id": 28829,
        "name": "Sailauf",
        "latitude": "50.02461000",
        "longitude": "9.25932000",
        "country": "Germany",
        "country_id": 82
    },
    {
        "id": 18421,
        "name": "Saillon",
        "latitude": "46.17035000",
        "longitude": "7.18771000",
        "country": "Switzerland",
        "country_id": 214
    },
    {
        "id": 45717,
        "name": "Sailly-Flibeaucourt",
        "latitude": "50.18419000",
        "longitude": "1.77180000",
        "country": "France",
        "country_id": 75
    },
    {
        "id": 45718,
        "name": "Sailly-Labourse",
        "latitude": "50.50120000",
        "longitude": "2.69708000",
        "country": "France",
        "country_id": 75
    },
    {
        "id": 45719,
        "name": "Sailly-lez-Lannoy",
        "latitude": "50.65000000",
        "longitude": "3.21667000",
        "country": "France",
        "country_id": 75
    },
    {
        "id": 45720,
        "name": "Sailly-sur-la-Lys",
        "latitude": "50.65820000",
        "longitude": "2.76872000",
        "country": "France",
        "country_id": 75
    },
    {
        "id": 147880,
        "name": "Sailu",
        "latitude": "19.47000000",
        "longitude": "76.47000000",
        "country": "India",
        "country_id": 101
    },
    {
        "id": 108374,
        "name": "Saimbeyli",
        "latitude": "37.99615000",
        "longitude": "36.09909000",
        "country": "Turkey",
        "country_id": 225
    },
    {
        "id": 73205,
        "name": "Sain Alto",
        "latitude": "23.58086000",
        "longitude": "-103.24807000",
        "country": "Mexico",
        "country_id": 142
    },
    {
        "id": 73206,
        "name": "Sain Bajo",
        "latitude": "23.61627000",
        "longitude": "-103.17447000",
        "country": "Mexico",
        "country_id": 142
    },
    {
        "id": 150567,
        "name": "Sain Qaleh",
        "latitude": "36.30295080",
        "longitude": "49.06384700",
        "country": "Iran",
        "country_id": 103
    },
    {
        "id": 45721,
        "name": "Sain-Bel",
        "latitude": "45.81017000",
        "longitude": "4.59797000",
        "country": "France",
        "country_id": 75
    },
    {
        "id": 45722,
        "name": "Sainghin-en-Mélantois",
        "latitude": "50.58836000",
        "longitude": "3.16619000",
        "country": "France",
        "country_id": 75
    },
    {
        "id": 45723,
        "name": "Sainghin-en-Weppes",
        "latitude": "50.56407000",
        "longitude": "2.89804000",
        "country": "France",
        "country_id": 75
    },
    {
        "id": 45724,
        "name": "Sains-du-Nord",
        "latitude": "50.09377000",
        "longitude": "4.00898000",
        "country": "France",
        "country_id": 75
    },
    {
        "id": 45725,
        "name": "Sains-en-Amiénois",
        "latitude": "49.81716000",
        "longitude": "2.31862000",
        "country": "France",
        "country_id": 75
    },
    {
        "id": 45726,
        "name": "Sains-en-Gohelle",
        "latitude": "50.44512000",
        "longitude": "2.68301000",
        "country": "France",
        "country_id": 75
    },
    {
        "id": 51162,
        "name": "Saint Agnes",
        "latitude": "50.31278000",
        "longitude": "-5.20456000",
        "country": "United Kingdom",
        "country_id": 232
    },
    {
        "id": 7108,
        "name": "Saint Albans",
        "latitude": "-37.73333000",
        "longitude": "144.80000000",
        "country": "Australia",
        "country_id": 14
    },
    {
        "id": 125594,
        "name": "Saint Albans",
        "latitude": "38.38565000",
        "longitude": "-81.83624000",
        "country": "United States",
        "country_id": 233
    },
    {
        "id": 125595,
        "name": "Saint Albans",
        "latitude": "44.91006000",
        "longitude": "-69.41005000",
        "country": "United States",
        "country_id": 233
    },
    {
        "id": 125596,
        "name": "Saint Albans",
        "latitude": "44.81088000",
        "longitude": "-73.08319000",
        "country": "United States",
        "country_id": 233
    },
    {
        "id": 7109,
        "name": "Saint Andrews",
        "latitude": "-37.60151000",
        "longitude": "145.27235000",
        "country": "Australia",
        "country_id": 14
    },
    {
        "id": 16913,
        "name": "Saint Andrews",
        "latitude": "45.07370000",
        "longitude": "-67.05312000",
        "country": "Canada",
        "country_id": 39
    },
    {
        "id": 51163,
        "name": "Saint Andrews",
        "latitude": "56.33871000",
        "longitude": "-2.79902000",
        "country": "United Kingdom",
        "country_id": 232
    },
    {
        "id": 125597,
        "name": "Saint Andrews",
        "latitude": "34.04543000",
        "longitude": "-81.12926000",
        "country": "United States",
        "country_id": 233
    },
    {
        "id": 7110,
        "name": "Saint Andrews Beach",
        "latitude": "-38.41410000",
        "longitude": "144.82436000",
        "country": "Australia",
        "country_id": 14
    },
    {
        "id": 125598,
        "name": "Saint Ann",
        "latitude": "38.72727000",
        "longitude": "-90.38317000",
        "country": "United States",
        "country_id": 233
    },
    {
        "id": 125599,
        "name": "Saint Anne",
        "latitude": "41.02503000",
        "longitude": "-87.71392000",
        "country": "United States",
        "country_id": 233
    },
    {
        "id": 62962,
        "name": "Saint Ann’s Bay",
        "latitude": "18.43581000",
        "longitude": "-77.20098000",
        "country": "Jamaica",
        "country_id": 108
    },
    {
        "id": 125600,
        "name": "Saint Ansgar",
        "latitude": "43.37830000",
        "longitude": "-92.91881000",
        "country": "United States",
        "country_id": 233
    },
    {
        "id": 125601,
        "name": "Saint Anthony",
        "latitude": "45.02052000",
        "longitude": "-93.21800000",
        "country": "United States",
        "country_id": 233
    },
    {
        "id": 125602,
        "name": "Saint Anthony",
        "latitude": "43.96630000",
        "longitude": "-111.68218000",
        "country": "United States",
        "country_id": 233
    },
    {
        "id": 51164,
        "name": "Saint Asaph",
        "latitude": "53.25815000",
        "longitude": "-3.44524000",
        "country": "United Kingdom",
        "country_id": 232
    },
    {
        "id": 67909,
        "name": "Saint Aubin",
        "latitude": "-20.49600000",
        "longitude": "57.55000000",
        "country": "Mauritius",
        "country_id": 140
    },
    {
        "id": 125603,
        "name": "Saint Augusta",
        "latitude": "45.45830000",
        "longitude": "-94.19804000",
        "country": "United States",
        "country_id": 233
    },
    {
        "id": 125604,
        "name": "Saint Augustine",
        "latitude": "29.89469000",
        "longitude": "-81.31452000",
        "country": "United States",
        "country_id": 233
    },
    {
        "id": 125605,
        "name": "Saint Augustine Beach",
        "latitude": "29.85053000",
        "longitude": "-81.26535000",
        "country": "United States",
        "country_id": 233
    },
    {
        "id": 125606,
        "name": "Saint Augustine Shores",
        "latitude": "29.81080000",
        "longitude": "-81.31035000",
        "country": "United States",
        "country_id": 233
    },
    {
        "id": 125607,
        "name": "Saint Augustine South",
        "latitude": "29.84249000",
        "longitude": "-81.31448000",
        "country": "United States",
        "country_id": 233
    },
    {
        "id": 51165,
        "name": "Saint Bees",
        "latitude": "54.49183000",
        "longitude": "-3.58987000",
        "country": "United Kingdom",
        "country_id": 232
    },
    {
        "id": 148021,
        "name": "Saint Bernard",
        "latitude": "10.28333333",
        "longitude": "125.13333333",
        "country": "Philippines",
        "country_id": 174
    },
    {
        "id": 84399,
        "name": "Saint Bernard",
        "latitude": "10.28333000",
        "longitude": "125.18333000",
        "country": "Philippines",
        "country_id": 174
    },
    {
        "id": 141683,
        "name": "Saint Bernard",
        "latitude": "39.16700000",
        "longitude": "-84.49855000",
        "country": "United States",
        "country_id": 233
    },
    {
        "id": 125608,
        "name": "Saint Bernard Parish",
        "latitude": "29.87399000",
        "longitude": "-89.82422000",
        "country": "United States",
        "country_id": 233
    },
    {
        "id": 125609,
        "name": "Saint Bonaventure",
        "latitude": "42.08034000",
        "longitude": "-78.47502000",
        "country": "United States",
        "country_id": 233
    },
    {
        "id": 125610,
        "name": "Saint Bonifacius",
        "latitude": "44.90552000",
        "longitude": "-93.74746000",
        "country": "United States",
        "country_id": 233
    },
    {
        "id": 51166,
        "name": "Saint Boswells",
        "latitude": "55.57301000",
        "longitude": "-2.64410000",
        "country": "United Kingdom",
        "country_id": 232
    },
    {
        "id": 31859,
        "name": "Saint Catherine",
        "latitude": "28.56191000",
        "longitude": "33.94934000",
        "country": "Egypt",
        "country_id": 65
    },
    {
        "id": 125611,
        "name": "Saint Charles",
        "latitude": "38.60317000",
        "longitude": "-76.93858000",
        "country": "United States",
        "country_id": 233
    },
    {
        "id": 125612,
        "name": "Saint Charles",
        "latitude": "38.78394000",
        "longitude": "-90.48123000",
        "country": "United States",
        "country_id": 233
    },
    {
        "id": 125613,
        "name": "Saint Charles",
        "latitude": "41.91419000",
        "longitude": "-88.30869000",
        "country": "United States",
        "country_id": 233
    },
    {
        "id": 125614,
        "name": "Saint Charles",
        "latitude": "43.29697000",
        "longitude": "-84.14053000",
        "country": "United States",
        "country_id": 233
    },
    {
        "id": 125615,
        "name": "Saint Charles",
        "latitude": "43.96941000",
        "longitude": "-92.06433000",
        "country": "United States",
        "country_id": 233
    },
    {
        "id": 125616,
        "name": "Saint Charles County",
        "latitude": "38.78192000",
        "longitude": "-90.67490000",
        "country": "United States",
        "country_id": 233
    },
    {
        "id": 125617,
        "name": "Saint Charles Parish",
        "latitude": "29.90553000",
        "longitude": "-90.35822000",
        "country": "United States",
        "country_id": 233
    },
    {
        "id": 125618,
        "name": "Saint Clair",
        "latitude": "38.34533000",
        "longitude": "-90.98097000",
        "country": "United States",
        "country_id": 233
    },
    {
        "id": 125619,
        "name": "Saint Clair",
        "latitude": "42.82087000",
        "longitude": "-82.48602000",
        "country": "United States",
        "country_id": 233
    },
    {
        "id": 125620,
        "name": "Saint Clair",
        "latitude": "40.72065000",
        "longitude": "-76.19105000",
        "country": "United States",
        "country_id": 233
    },
    {
        "id": 125621,
        "name": "Saint Clair County",
        "latitude": "33.71570000",
        "longitude": "-86.31469000",
        "country": "United States",
        "country_id": 233
    },
    {
        "id": 125622,
        "name": "Saint Clair County",
        "latitude": "38.47031000",
        "longitude": "-89.92841000",
        "country": "United States",
        "country_id": 233
    },
    {
        "id": 125623,
        "name": "Saint Clair County",
        "latitude": "38.03718000",
        "longitude": "-93.77598000",
        "country": "United States",
        "country_id": 233
    },
    {
        "id": 125624,
        "name": "Saint Clair County",
        "latitude": "42.93112000",
        "longitude": "-82.66437000",
        "country": "United States",
        "country_id": 233
    },
    {
        "id": 125625,
        "name": "Saint Clair Shores",
        "latitude": "42.49698000",
        "longitude": "-82.88881000",
        "country": "United States",
        "country_id": 233
    },
    {
        "id": 141684,
        "name": "Saint Clairsville",
        "latitude": "40.08063000",
        "longitude": "-80.90009000",
        "country": "United States",
        "country_id": 233
    },
    {
        "id": 51167,
        "name": "Saint Clears",
        "latitude": "51.81989000",
        "longitude": "-4.49783000",
        "country": "United Kingdom",
        "country_id": 232
    },
    {
        "id": 125626,
        "name": "Saint Cloud",
        "latitude": "28.24890000",
        "longitude": "-81.28118000",
        "country": "United States",
        "country_id": 233
    },
    {
        "id": 125627,
        "name": "Saint Cloud",
        "latitude": "45.56080000",
        "longitude": "-94.16249000",
        "country": "United States",
        "country_id": 233
    },
    {
        "id": 51168,
        "name": "Saint Columb Major",
        "latitude": "50.43163000",
        "longitude": "-4.94336000",
        "country": "United Kingdom",
        "country_id": 232
    },
    {
        "id": 125628,
        "name": "Saint Croix County",
        "latitude": "45.03407000",
        "longitude": "-92.45278000",
        "country": "United States",
        "country_id": 233
    },
    {
        "id": 125629,
        "name": "Saint Croix Falls",
        "latitude": "45.40996000",
        "longitude": "-92.63965000",
        "country": "United States",
        "country_id": 233
    },
    {
        "id": 51169,
        "name": "Saint Cyrus",
        "latitude": "56.77504000",
        "longitude": "-2.41553000",
        "country": "United Kingdom",
        "country_id": 232
    },
    {
        "id": 125630,
        "name": "Saint David",
        "latitude": "31.90425000",
        "longitude": "-110.21424000",
        "country": "United States",
        "country_id": 233
    },
    {
        "id": 51170,
        "name": "Saint Davids",
        "latitude": "51.88094000",
        "longitude": "-5.26554000",
        "country": "United Kingdom",
        "country_id": 232
    },
    {
        "id": 52031,
        "name": "Saint David’s",
        "latitude": "12.04903000",
        "longitude": "-61.66875000",
        "country": "Grenada",
        "country_id": 87
    },
    {
        "id": 51171,
        "name": "Saint Dennis",
        "latitude": "50.38333000",
        "longitude": "-4.88333000",
        "country": "United Kingdom",
        "country_id": 232
    },
    {
        "id": 125631,
        "name": "Saint Dennis",
        "latitude": "38.18840000",
        "longitude": "-85.84580000",
        "country": "United States",
        "country_id": 233
    },
    {
        "id": 125632,
        "name": "Saint Elmo",
        "latitude": "39.02727000",
        "longitude": "-88.84811000",
        "country": "United States",
        "country_id": 233
    },
    {
        "id": 125633,
        "name": "Saint Francis",
        "latitude": "45.38691000",
        "longitude": "-93.35940000",
        "country": "United States",
        "country_id": 233
    },
    {
        "id": 125634,
        "name": "Saint Francis",
        "latitude": "42.96752000",
        "longitude": "-87.87758000",
        "country": "United States",
        "country_id": 233
    },
    {
        "id": 125635,
        "name": "Saint Francis",
        "latitude": "39.77222000",
        "longitude": "-101.79990000",
        "country": "United States",
        "country_id": 233
    },
    {
        "id": 125636,
        "name": "Saint Francis County",
        "latitude": "35.02200000",
        "longitude": "-90.74778000",
        "country": "United States",
        "country_id": 233
    },
    {
        "id": 125637,
        "name": "Saint Francisville",
        "latitude": "30.77990000",
        "longitude": "-91.37650000",
        "country": "United States",
        "country_id": 233
    },
    {
        "id": 125638,
        "name": "Saint Francois County",
        "latitude": "37.81028000",
        "longitude": "-90.47227000",
        "country": "United States",
        "country_id": 233
    },
    {
        "id": 125639,
        "name": "Saint Gabriel",
        "latitude": "30.25770000",
        "longitude": "-91.09927000",
        "country": "United States",
        "country_id": 233
    },
    {
        "id": 125640,
        "name": "Saint George",
        "latitude": "28.05641000",
        "longitude": "-82.72788000",
        "country": "United States",
        "country_id": 233
    },
    {
        "id": 125641,
        "name": "Saint George",
        "latitude": "38.53672000",
        "longitude": "-90.31484000",
        "country": "United States",
        "country_id": 233
    },
    {
        "id": 125642,
        "name": "Saint George",
        "latitude": "33.18600000",
        "longitude": "-80.57565000",
        "country": "United States",
        "country_id": 233
    },
    {
        "id": 125643,
        "name": "Saint George",
        "latitude": "44.01647000",
        "longitude": "-69.19893000",
        "country": "United States",
        "country_id": 233
    },
    {
        "id": 125644,
        "name": "Saint George",
        "latitude": "37.10415000",
        "longitude": "-113.58412000",
        "country": "United States",
        "country_id": 233
    },
    {
        "id": 52032,
        "name": "Saint George's",
        "latitude": "12.05288000",
        "longitude": "-61.75226000",
        "country": "Grenada",
        "country_id": 87
    },
    {
        "id": 125645,
        "name": "Saint Hedwig",
        "latitude": "29.41440000",
        "longitude": "-98.20001000",
        "country": "United States",
        "country_id": 233
    },
    {
        "id": 125646,
        "name": "Saint Helen",
        "latitude": "44.36363000",
        "longitude": "-84.41029000",
        "country": "United States",
        "country_id": 233
    },
    {
        "id": 7111,
        "name": "Saint Helena",
        "latitude": "-37.70000000",
        "longitude": "145.13333000",
        "country": "Australia",
        "country_id": 14
    },
    {
        "id": 125647,
        "name": "Saint Helena",
        "latitude": "38.50519000",
        "longitude": "-122.47026000",
        "country": "United States",
        "country_id": 233
    },
    {
        "id": 125648,
        "name": "Saint Helena Parish",
        "latitude": "30.82198000",
        "longitude": "-90.71032000",
        "country": "United States",
        "country_id": 233
    },
    {
        "id": 125649,
        "name": "Saint Helens",
        "latitude": "45.86400000",
        "longitude": "-122.80649000",
        "country": "United States",
        "country_id": 233
    },
    {
        "id": 141685,
        "name": "Saint Henry",
        "latitude": "40.41755000",
        "longitude": "-84.63968000",
        "country": "United States",
        "country_id": 233
    },
    {
        "id": 67910,
        "name": "Saint Hubert",
        "latitude": "-20.36417000",
        "longitude": "57.63833000",
        "country": "Mauritius",
        "country_id": 140
    },
    {
        "id": 125650,
        "name": "Saint Ignace",
        "latitude": "45.86614000",
        "longitude": "-84.72751000",
        "country": "United States",
        "country_id": 233
    },
    {
        "id": 7112,
        "name": "Saint Ives",
        "latitude": "-33.72976000",
        "longitude": "151.15977000",
        "country": "Australia",
        "country_id": 14
    },
    {
        "id": 125651,
        "name": "Saint Jacob",
        "latitude": "38.71394000",
        "longitude": "-89.76815000",
        "country": "United States",
        "country_id": 233
    },
    {
        "id": 125652,
        "name": "Saint James",
        "latitude": "39.56260000",
        "longitude": "-77.75805000",
        "country": "United States",
        "country_id": 233
    },
    {
        "id": 125653,
        "name": "Saint James",
        "latitude": "37.99726000",
        "longitude": "-91.61432000",
        "country": "United States",
        "country_id": 233
    },
    {
        "id": 125654,
        "name": "Saint James",
        "latitude": "33.92934000",
        "longitude": "-78.11638000",
        "country": "United States",
        "country_id": 233
    },
    {
        "id": 125655,
        "name": "Saint James",
        "latitude": "43.98246000",
        "longitude": "-94.62692000",
        "country": "United States",
        "country_id": 233
    },
    {
        "id": 125656,
        "name": "Saint James",
        "latitude": "40.87899000",
        "longitude": "-73.15678000",
        "country": "United States",
        "country_id": 233
    },
    {
        "id": 125657,
        "name": "Saint James City",
        "latitude": "26.49758000",
        "longitude": "-82.07843000",
        "country": "United States",
        "country_id": 233
    },
    {
        "id": 125658,
        "name": "Saint James Parish",
        "latitude": "30.02630000",
        "longitude": "-90.79632000",
        "country": "United States",
        "country_id": 233
    },
    {
        "id": 125659,
        "name": "Saint Jo",
        "latitude": "33.69483000",
        "longitude": "-97.52252000",
        "country": "United States",
        "country_id": 233
    },
    {
        "id": 16914,
        "name": "Saint John",
        "latitude": "45.27271000",
        "longitude": "-66.06766000",
        "country": "Canada",
        "country_id": 39
    },
    {
        "id": 67801,
        "name": "Saint John",
        "latitude": "35.90556000",
        "longitude": "14.47611000",
        "country": "Malta",
        "country_id": 135
    },
    {
        "id": 125660,
        "name": "Saint John",
        "latitude": "38.00224000",
        "longitude": "-98.76009000",
        "country": "United States",
        "country_id": 233
    },