[
    {
        "id": 62498,
        "name": "D'Aguilar Town/ Rennock Lodge",
        "latitude": "17.97001000",
        "longitude": "-76.73701000",
        "country": "Jamaica",
        "country_id": 108
    },
    {
        "id": 153413,
        "name": "D'Epinay",
        "latitude": "-20.13021100",
        "longitude": "57.59583800",
        "country": "Mauritius",
        "country_id": 140
    },
    {
        "id": 114961,
        "name": "D'Iberville",
        "latitude": "30.42631000",
        "longitude": "-88.89086000",
        "country": "United States",
        "country_id": 233
    },
    {
        "id": 130195,
        "name": "Da Nang",
        "latitude": "16.06778000",
        "longitude": "108.22083000",
        "country": "Vietnam",
        "country_id": 240
    },
    {
        "id": 82326,
        "name": "Da-an Sur",
        "latitude": "11.26120000",
        "longitude": "122.42020000",
        "country": "Philippines",
        "country_id": 174
    },
    {
        "id": 24572,
        "name": "Daaden",
        "latitude": "50.73333000",
        "longitude": "7.96667000",
        "country": "Germany",
        "country_id": 82
    },
    {
        "id": 82327,
        "name": "Daanbantayan",
        "latitude": "11.24681000",
        "longitude": "124.01462000",
        "country": "Philippines",
        "country_id": 174
    },
    {
        "id": 52232,
        "name": "Daba Kunda",
        "latitude": "13.31667000",
        "longitude": "-14.30000000",
        "country": "Gambia The",
        "country_id": 80
    },
    {
        "id": 153259,
        "name": "Dababa",
        "latitude": "12.38000000",
        "longitude": "17.06000000",
        "country": "Chad",
        "country_id": 43
    },
    {
        "id": 19412,
        "name": "Dabachang",
        "latitude": "27.74250000",
        "longitude": "108.34333000",
        "country": "China",
        "country_id": 45
    },
    {
        "id": 76822,
        "name": "Dabai",
        "latitude": "11.47651000",
        "longitude": "5.20625000",
        "country": "Nigeria",
        "country_id": 161
    },
    {
        "id": 18890,
        "name": "Dabakala",
        "latitude": "8.36321000",
        "longitude": "-4.42863000",
        "country": "Cote D'Ivoire (Ivory Coast)",
        "country_id": 54
    },
    {
        "id": 66089,
        "name": "Daban",
        "latitude": "13.80490000",
        "longitude": "-61.00435000",
        "country": "Saint Lucia",
        "country_id": 186
    },
    {
        "id": 19413,
        "name": "Dabaozi",
        "latitude": "26.69556000",
        "longitude": "109.44778000",
        "country": "China",
        "country_id": 45
    },
    {
        "id": 55351,
        "name": "Dabas",
        "latitude": "47.18594000",
        "longitude": "19.31091000",
        "country": "Hungary",
        "country_id": 99
    },
    {
        "id": 55352,
        "name": "Dabasi Járás",
        "latitude": "47.19000000",
        "longitude": "19.33000000",
        "country": "Hungary",
        "country_id": 99
    },
    {
        "id": 38610,
        "name": "Dabat",
        "latitude": "12.98417000",
        "longitude": "37.76500000",
        "country": "Ethiopia",
        "country_id": 70
    },
    {
        "id": 57456,
        "name": "Dabbūrīya",
        "latitude": "32.69256000",
        "longitude": "35.37123000",
        "country": "Israel",
        "country_id": 106
    },
    {
        "id": 20773,
        "name": "Dabeiba",
        "latitude": "7.03367000",
        "longitude": "-76.34161000",
        "country": "Colombia",
        "country_id": 48
    },
    {
        "id": 24573,
        "name": "Dabel",
        "latitude": "53.66112000",
        "longitude": "11.90025000",
        "country": "Germany",
        "country_id": 82
    },
    {
        "id": 147589,
        "name": "Dabhoda",
        "latitude": "23.16666667",
        "longitude": "72.73333333",
        "country": "India",
        "country_id": 101
    },
    {
        "id": 131635,
        "name": "Dabhoi",
        "latitude": "22.18333000",
        "longitude": "73.43333000",
        "country": "India",
        "country_id": 101
    },
    {
        "id": 131805,
        "name": "Dabhol",
        "latitude": "17.58971000",
        "longitude": "73.18001000",
        "country": "India",
        "country_id": 101
    },
    {
        "id": 150654,
        "name": "Dabiran",
        "latitude": "28.40752830",
        "longitude": "54.16883220",
        "country": "Iran",
        "country_id": 103
    },
    {
        "id": 41401,
        "name": "Dabo",
        "latitude": "48.65373000",
        "longitude": "7.23611000",
        "country": "France",
        "country_id": 75
    },
    {
        "id": 131636,
        "name": "Daboh",
        "latitude": "26.00239000",
        "longitude": "78.87658000",
        "country": "India",
        "country_id": 101
    },
    {
        "id": 18891,
        "name": "Dabou",
        "latitude": "5.32556000",
        "longitude": "-4.37685000",
        "country": "Cote D'Ivoire (Ivory Coast)",
        "country_id": 54
    },
    {
        "id": 131637,
        "name": "Dabra",
        "latitude": "25.88572000",
        "longitude": "78.33221000",
        "country": "India",
        "country_id": 101
    },
    {
        "id": 150914,
        "name": "Dabudasht",
        "latitude": "36.48444400",
        "longitude": "52.45166700",
        "country": "Iran",
        "country_id": 103
    },
    {
        "id": 131638,
        "name": "Dabwali",
        "latitude": "29.94906000",
        "longitude": "74.73832000",
        "country": "India",
        "country_id": 101
    },
    {
        "id": 148972,
        "name": "Dabyah",
        "latitude": "22.42470000",
        "longitude": "39.44610000",
        "country": "Saudi Arabia",
        "country_id": 194
    },
    {
        "id": 4918,
        "name": "Daceyville",
        "latitude": "-33.92879000",
        "longitude": "151.22577000",
        "country": "Australia",
        "country_id": 14
    },
    {
        "id": 24574,
        "name": "Dachau",
        "latitude": "48.26000000",
        "longitude": "11.43402000",
        "country": "Germany",
        "country_id": 82
    },
    {
        "id": 98230,
        "name": "Dachnoye",
        "latitude": "43.08468000",
        "longitude": "44.73580000",
        "country": "Russia",
        "country_id": 182
    },
    {
        "id": 98231,
        "name": "Dachnoye",
        "latitude": "59.84167000",
        "longitude": "30.25583000",
        "country": "Russia",
        "country_id": 182
    },
    {
        "id": 109527,
        "name": "Dachnoye",
        "latitude": "44.88448000",
        "longitude": "34.98333000",
        "country": "Ukraine",
        "country_id": 230
    },
    {
        "id": 17673,
        "name": "Dachsen",
        "latitude": "47.66515000",
        "longitude": "8.61790000",
        "country": "Switzerland",
        "country_id": 214
    },
    {
        "id": 24575,
        "name": "Dachsenhausen",
        "latitude": "50.25415000",
        "longitude": "7.72725000",
        "country": "Germany",
        "country_id": 82
    },
    {
        "id": 41402,
        "name": "Dachstein",
        "latitude": "48.56127000",
        "longitude": "7.53233000",
        "country": "France",
        "country_id": 75
    },
    {
        "id": 24576,
        "name": "Dachwig",
        "latitude": "51.07770000",
        "longitude": "10.85479000",
        "country": "Germany",
        "country_id": 82
    },
    {
        "id": 114962,
        "name": "Dacono",
        "latitude": "40.08471000",
        "longitude": "-104.93942000",
        "country": "United States",
        "country_id": 233
    },
    {
        "id": 66090,
        "name": "Dacretin",
        "latitude": "13.79617000",
        "longitude": "-61.03574000",
        "country": "Saint Lucia",
        "country_id": 186
    },
    {
        "id": 144927,
        "name": "Dacudao",
        "latitude": "7.21527778",
        "longitude": "125.47138889",
        "country": "Philippines",
        "country_id": 174
    },
    {
        "id": 144162,
        "name": "Dacudao",
        "latitude": "7.21527778",
        "longitude": "125.47138889",
        "country": "Philippines",
        "country_id": 174
    },
    {
        "id": 82328,
        "name": "Dacudao",
        "latitude": "7.21528000",
        "longitude": "125.47139000",
        "country": "Philippines",
        "country_id": 174
    },
    {
        "id": 114963,
        "name": "Dacula",
        "latitude": "33.98872000",
        "longitude": "-83.89796000",
        "country": "United States",
        "country_id": 233
    },
    {
        "id": 149616,
        "name": "Dad",
        "latitude": "47.51881111",
        "longitude": "18.22463056",
        "country": "Hungary",
        "country_id": 99
    },
    {
        "id": 107439,
        "name": "Daday",
        "latitude": "41.47866000",
        "longitude": "33.46667000",
        "country": "Turkey",
        "country_id": 225
    },
    {
        "id": 147729,
        "name": "Daddi",
        "latitude": "16.06666667",
        "longitude": "74.43333333",
        "country": "India",
        "country_id": 101
    },
    {
        "id": 114964,
        "name": "Dade City",
        "latitude": "28.36472000",
        "longitude": "-82.19592000",
        "country": "United States",
        "country_id": 233
    },
    {
        "id": 114965,
        "name": "Dade City North",
        "latitude": "28.38334000",
        "longitude": "-82.19389000",
        "country": "United States",
        "country_id": 233
    },
    {
        "id": 114966,
        "name": "Dade County",
        "latitude": "34.85452000",
        "longitude": "-85.50453000",
        "country": "United States",
        "country_id": 233
    },
    {
        "id": 114967,
        "name": "Dade County",
        "latitude": "37.43204000",
        "longitude": "-93.85029000",
        "country": "United States",
        "country_id": 233
    },
    {
        "id": 79717,
        "name": "Dadeldhurā",
        "latitude": "29.29842000",
        "longitude": "80.58059000",
        "country": "Nepal",
        "country_id": 154
    },
    {
        "id": 19414,
        "name": "Dadeng",
        "latitude": "24.54386000",
        "longitude": "118.32753000",
        "country": "China",
        "country_id": 45
    },
    {
        "id": 114968,
        "name": "Dadeville",
        "latitude": "32.83124000",
        "longitude": "-85.76357000",
        "country": "United States",
        "country_id": 233
    },
    {
        "id": 85402,
        "name": "Dadhar",
        "latitude": "29.47489000",
        "longitude": "67.65167000",
        "country": "Pakistan",
        "country_id": 167
    },
    {
        "id": 76823,
        "name": "Dadiya",
        "latitude": "9.61667000",
        "longitude": "11.43333000",
        "country": "Nigeria",
        "country_id": 161
    },
    {
        "id": 144678,
        "name": "Dado",
        "latitude": "7.05000000",
        "longitude": "124.45972222",
        "country": "Philippines",
        "country_id": 174
    },
    {
        "id": 82329,
        "name": "Dado",
        "latitude": "7.05000000",
        "longitude": "124.45972000",
        "country": "Philippines",
        "country_id": 174
    },
    {
        "id": 19415,
        "name": "Dadonghai",
        "latitude": "18.22056000",
        "longitude": "109.51028000",
        "country": "China",
        "country_id": 45
    },
    {
        "id": 41403,
        "name": "Dadonville",
        "latitude": "48.15776000",
        "longitude": "2.27150000",
        "country": "France",
        "country_id": 75
    },
    {
        "id": 131639,
        "name": "Dadra",
        "latitude": "20.32504000",
        "longitude": "72.96618000",
        "country": "India",
        "country_id": 101
    },
    {
        "id": 131640,
        "name": "Dadra & Nagar Haveli",
        "latitude": "20.20651000",
        "longitude": "73.00811000",
        "country": "India",
        "country_id": 101
    },
    {
        "id": 131806,
        "name": "Dadri",
        "latitude": "28.55257000",
        "longitude": "77.55403000",
        "country": "India",
        "country_id": 101
    },
    {
        "id": 85403,
        "name": "Dadu",
        "latitude": "26.73033000",
        "longitude": "67.77690000",
        "country": "Pakistan",
        "country_id": 167
    },
    {
        "id": 19416,
        "name": "Dadukou",
        "latitude": "26.54790000",
        "longitude": "101.70539000",
        "country": "China",
        "country_id": 45
    },
    {
        "id": 149162,
        "name": "Dadunqiu",
        "latitude": "39.40611111",
        "longitude": "117.03305556",
        "country": "China",
        "country_id": 45
    },
    {
        "id": 144679,
        "name": "Dadus",
        "latitude": "7.05750000",
        "longitude": "124.32166667",
        "country": "Philippines",
        "country_id": 174
    },
    {
        "id": 82330,
        "name": "Dadus",
        "latitude": "7.05750000",
        "longitude": "124.32167000",
        "country": "Philippines",
        "country_id": 174
    },
    {
        "id": 65300,
        "name": "Daegu",
        "latitude": "35.87028000",
        "longitude": "128.59111000",
        "country": "South Korea",
        "country_id": 116
    },
    {
        "id": 65301,
        "name": "Daejeon",
        "latitude": "36.34913000",
        "longitude": "127.38493000",
        "country": "South Korea",
        "country_id": 116
    },
    {
        "id": 76437,
        "name": "Daerah Batu Pahat",
        "latitude": "1.93333000",
        "longitude": "103.00000000",
        "country": "Malaysia",
        "country_id": 132
    },
    {
        "id": 76438,
        "name": "Daerah Johor Baharu",
        "latitude": "1.65000000",
        "longitude": "103.60000000",
        "country": "Malaysia",
        "country_id": 132
    },
    {
        "id": 76439,
        "name": "Daerah Keluang",
        "latitude": "2.20000000",
        "longitude": "103.33333000",
        "country": "Malaysia",
        "country_id": 132
    },
    {
        "id": 76440,
        "name": "Daerah Kota Tinggi",
        "latitude": "1.81667000",
        "longitude": "103.96667000",
        "country": "Malaysia",
        "country_id": 132
    },
    {
        "id": 76441,
        "name": "Daerah Mersing",
        "latitude": "2.31667000",
        "longitude": "103.71667000",
        "country": "Malaysia",
        "country_id": 132
    },
    {
        "id": 76442,
        "name": "Daerah Muar",
        "latitude": "2.25000000",
        "longitude": "102.75000000",
        "country": "Malaysia",
        "country_id": 132
    },
    {
        "id": 76443,
        "name": "Daerah Pontian",
        "latitude": "1.50000000",
        "longitude": "103.50000000",
        "country": "Malaysia",
        "country_id": 132
    },
    {
        "id": 76444,
        "name": "Daerah Segamat",
        "latitude": "2.60000000",
        "longitude": "102.81667000",
        "country": "Malaysia",
        "country_id": 132
    },
    {
        "id": 82331,
        "name": "Daet",
        "latitude": "14.11220000",
        "longitude": "122.95530000",
        "country": "Philippines",
        "country_id": 174
    },
    {
        "id": 15705,
        "name": "Daga",
        "latitude": "27.07529000",
        "longitude": "89.87688000",
        "country": "Bhutan",
        "country_id": 26
    },
    {
        "id": 82332,
        "name": "Dagami",
        "latitude": "11.06083000",
        "longitude": "124.90278000",
        "country": "Philippines",
        "country_id": 174
    },
    {
        "id": 148126,
        "name": "Dagami",
        "latitude": "11.06111111",
        "longitude": "124.90305556",
        "country": "Philippines",
        "country_id": 174
    },
    {
        "id": 33908,
        "name": "Daganzo de Arriba",
        "latitude": "40.54293000",
        "longitude": "-3.45457000",
        "country": "Spain",
        "country_id": 207
    },
    {
        "id": 82333,
        "name": "Dagatan",
        "latitude": "14.00170000",
        "longitude": "121.37670000",
        "country": "Philippines",
        "country_id": 174
    },
    {
        "id": 66889,
        "name": "Dagda",
        "latitude": "56.09512000",
        "longitude": "27.53723000",
        "country": "Latvia",
        "country_id": 120
    },
    {
        "id": 49219,
        "name": "Dagenham",
        "latitude": "51.55000000",
        "longitude": "0.16667000",
        "country": "United Kingdom",
        "country_id": 232
    },
    {
        "id": 98232,
        "name": "Dagestanskiye Ogni",
        "latitude": "42.11589000",
        "longitude": "48.19204000",
        "country": "Russia",
        "country_id": 182
    },
    {
        "id": 114969,
        "name": "Daggett County",
        "latitude": "40.88727000",
        "longitude": "-109.50765000",
        "country": "United States",
        "country_id": 233
    },
    {
        "id": 4919,
        "name": "Daglish",
        "latitude": "-31.95177000",
        "longitude": "115.80880000",
        "country": "Australia",
        "country_id": 14
    },
    {
        "id": 17674,
        "name": "Dagmersellen",
        "latitude": "47.21405000",
        "longitude": "7.98519000",
        "country": "Switzerland",
        "country_id": 214
    },
    {
        "id": 41404,
        "name": "Dagneux",
        "latitude": "45.85140000",
        "longitude": "5.07780000",
        "country": "France",
        "country_id": 75
    },
    {
        "id": 82334,
        "name": "Dagohoy",
        "latitude": "9.90016000",
        "longitude": "124.28322000",
        "country": "Philippines",
        "country_id": 174
    },
    {
        "id": 98233,
        "name": "Dagomys",
        "latitude": "43.66974000",
        "longitude": "39.66863000",
        "country": "Russia",
        "country_id": 182
    },
    {
        "id": 153446,
        "name": "Dagotiere",
        "latitude": "-20.24618900",
        "longitude": "57.55988100",
        "country": "Mauritius",
        "country_id": 140
    },
    {
        "id": 67855,
        "name": "Dagotière",
        "latitude": "-20.24476000",
        "longitude": "57.56188000",
        "country": "Mauritius",
        "country_id": 140
    },
    {
        "id": 131641,
        "name": "Dagshai",
        "latitude": "30.88431000",
        "longitude": "77.05228000",
        "country": "India",
        "country_id": 101
    },
    {
        "id": 20774,
        "name": "Dagua",
        "latitude": "3.65685000",
        "longitude": "-76.68859000",
        "country": "Colombia",
        "country_id": 48
    },
    {
        "id": 143048,
        "name": "Daguao",
        "latitude": "18.22638889",
        "longitude": "-65.68333333",
        "country": "United States",
        "country_id": 233
    },
    {
        "id": 144796,
        "name": "Daguioman",
        "latitude": "17.45000000",
        "longitude": "120.95000000",
        "country": "Philippines",
        "country_id": 174
    },
    {
        "id": 82335,
        "name": "Daguioman",
        "latitude": "17.45093000",
        "longitude": "120.91505000",
        "country": "Philippines",
        "country_id": 174
    },
    {
        "id": 82336,
        "name": "Daguit",
        "latitude": "14.18950000",
        "longitude": "122.72660000",
        "country": "Philippines",
        "country_id": 174
    },
    {
        "id": 82337,
        "name": "Daguma",
        "latitude": "6.60345000",
        "longitude": "124.57020000",
        "country": "Philippines",
        "country_id": 174
    },
    {
        "id": 82338,
        "name": "Dagumba-an",
        "latitude": "8.15306000",
        "longitude": "124.59083000",
        "country": "Philippines",
        "country_id": 174
    },
    {
        "id": 82339,
        "name": "Dagup",
        "latitude": "16.63722000",
        "longitude": "120.44556000",
        "country": "Philippines",
        "country_id": 174
    },
    {
        "id": 145906,
        "name": "Dagup",
        "latitude": "16.63722222",
        "longitude": "120.44555556",
        "country": "Philippines",
        "country_id": 174
    },
    {
        "id": 145171,
        "name": "Dagupan",
        "latitude": "17.70027778",
        "longitude": "121.50444444",
        "country": "Philippines",
        "country_id": 174
    },
    {
        "id": 82340,
        "name": "Dagupan",
        "latitude": "16.04313000",
        "longitude": "120.33325000",
        "country": "Philippines",
        "country_id": 174
    },
    {
        "id": 82341,
        "name": "Dagupan",
        "latitude": "17.70039000",
        "longitude": "121.50448000",
        "country": "Philippines",
        "country_id": 174
    },
    {
        "id": 145907,
        "name": "Dagupan",
        "latitude": "16.04313000",
        "longitude": "120.33325000",
        "country": "Philippines",
        "country_id": 174
    },
    {
        "id": 93887,
        "name": "Dagâţa",
        "latitude": "46.93333000",
        "longitude": "27.18333000",
        "country": "Romania",
        "country_id": 181
    },
    {
        "id": 31803,
        "name": "Dahab",
        "latitude": "28.48208000",
        "longitude": "34.49505000",
        "country": "Egypt",
        "country_id": 65
    },
    {
        "id": 148973,
        "name": "Dahaban",
        "latitude": "21.93333333",
        "longitude": "39.11666667",
        "country": "Saudi Arabia",
        "country_id": 194
    },
    {
        "id": 131807,
        "name": "Dahanu",
        "latitude": "19.96778000",
        "longitude": "72.71263000",
        "country": "India",
        "country_id": 101
    },
    {
        "id": 143934,
        "name": "Dahay",
        "latitude": "6.39067000",
        "longitude": "124.71464000",
        "country": "Philippines",
        "country_id": 174
    },
    {
        "id": 82342,
        "name": "Dahay",
        "latitude": "6.39067000",
        "longitude": "124.71464000",
        "country": "Philippines",
        "country_id": 174
    },
    {
        "id": 131642,
        "name": "Dahegam",
        "latitude": "23.16903000",
        "longitude": "72.82161000",
        "country": "India",
        "country_id": 101
    },
    {
        "id": 147730,
        "name": "Dahivel",
        "latitude": "21.06666667",
        "longitude": "74.16666667",
        "country": "India",
        "country_id": 101
    },
    {
        "id": 24577,
        "name": "Dahlem",
        "latitude": "50.38607000",
        "longitude": "6.54768000",
        "country": "Germany",
        "country_id": 82
    },
    {
        "id": 24578,
        "name": "Dahlem",
        "latitude": "52.45810000",
        "longitude": "13.28702000",
        "country": "Germany",
        "country_id": 82
    },
    {
        "id": 24579,
        "name": "Dahlen",
        "latitude": "51.36495000",
        "longitude": "12.99881000",
        "country": "Germany",
        "country_id": 82
    },
    {
        "id": 24580,
        "name": "Dahlenburg",
        "latitude": "53.18767000",
        "longitude": "10.73650000",
        "country": "Germany",
        "country_id": 82
    },
    {
        "id": 24581,
        "name": "Dahlenwarsleben",
        "latitude": "52.19519000",
        "longitude": "11.53736000",
        "country": "Germany",
        "country_id": 82
    },
    {
        "id": 114970,
        "name": "Dahlgren",
        "latitude": "38.33124000",
        "longitude": "-77.05109000",
        "country": "United States",
        "country_id": 233
    },
    {
        "id": 114971,
        "name": "Dahlonega",
        "latitude": "34.53259000",
        "longitude": "-83.98491000",
        "country": "United States",
        "country_id": 233
    },
    {
        "id": 24582,
        "name": "Dahme",
        "latitude": "54.21667000",
        "longitude": "11.08333000",
        "country": "Germany",
        "country_id": 82
    },
    {
        "id": 24583,
        "name": "Dahme",
        "latitude": "51.87008000",
        "longitude": "13.42743000",
        "country": "Germany",
        "country_id": 82
    },
    {
        "id": 24584,
        "name": "Dahn",
        "latitude": "49.15098000",
        "longitude": "7.77843000",
        "country": "Germany",
        "country_id": 82
    },
    {
        "id": 147035,
        "name": "Dahnejerd",
        "latitude": "34.96750000",
        "longitude": "48.50055600",
        "country": "Iran",
        "country_id": 103
    },
    {
        "id": 142126,
        "name": "Dahod",
        "latitude": "22.52000000",
        "longitude": "74.15000000",
        "country": "India",
        "country_id": 101
    },
    {
        "id": 146353,
        "name": "Daia",
        "latitude": "46.14444444",
        "longitude": "24.89861111",
        "country": "Romania",
        "country_id": 181
    },
    {
        "id": 93888,
        "name": "Daia",
        "latitude": "44.00000000",
        "longitude": "25.98333000",
        "country": "Romania",
        "country_id": 181
    },
    {
        "id": 93889,
        "name": "Daia Română",
        "latitude": "46.01667000",
        "longitude": "23.66667000",
        "country": "Romania",
        "country_id": 181
    },
    {
        "id": 138223,
        "name": "Daiano",
        "latitude": "46.30161000",
        "longitude": "11.44908000",
        "country": "Italy",
        "country_id": 107
    },
    {
        "id": 63317,
        "name": "Daigo",
        "latitude": "36.76667000",
        "longitude": "140.35000000",
        "country": "Japan",
        "country_id": 109
    },
    {
        "id": 79718,
        "name": "Dailekh",
        "latitude": "28.84434000",
        "longitude": "81.71011000",
        "country": "Nepal",
        "country_id": 154
    },
    {
        "id": 33909,
        "name": "Daimiel",
        "latitude": "39.07004000",
        "longitude": "-3.61498000",
        "country": "Spain",
        "country_id": 207
    },
    {
        "id": 33910,
        "name": "Daimús",
        "latitude": "38.96667000",
        "longitude": "-0.15000000",
        "country": "Spain",
        "country_id": 207
    },
    {
        "id": 66591,
        "name": "Dainava (Kaunas)",
        "latitude": "54.91525000",
        "longitude": "23.96831000",
        "country": "Lithuania",
        "country_id": 126
    },
    {
        "id": 57206,
        "name": "Daingean",
        "latitude": "53.29611000",
        "longitude": "-7.28944000",
        "country": "Ireland",
        "country_id": 105
    },
    {
        "id": 114972,
        "name": "Daingerfield",
        "latitude": "33.03179000",
        "longitude": "-94.72187000",
        "country": "United States",
        "country_id": 233
    },
    {
        "id": 41405,
        "name": "Dainville",
        "latitude": "50.28097000",
        "longitude": "2.72603000",
        "country": "France",
        "country_id": 75
    },
    {
        "id": 85404,
        "name": "Daira Din Panah",
        "latitude": "30.57053000",
        "longitude": "70.93722000",
        "country": "Pakistan",
        "country_id": 167
    },
    {
        "id": 138224,
        "name": "Dairago",
        "latitude": "45.56580000",
        "longitude": "8.86265000",
        "country": "Italy",
        "country_id": 107
    },
    {
        "id": 63318,
        "name": "Daisen",
        "latitude": "39.44116000",
        "longitude": "140.48961000",
        "country": "Japan",
        "country_id": 109
    },
    {
        "id": 63319,
        "name": "Daisen-shi",
        "latitude": "39.53710000",
        "longitude": "140.44139000",
        "country": "Japan",
        "country_id": 109
    },
    {
        "id": 24585,
        "name": "Daisendorf",
        "latitude": "47.71265000",
        "longitude": "9.26783000",
        "country": "Germany",
        "country_id": 82
    },
    {
        "id": 4920,
        "name": "Daisy Hill",
        "latitude": "-27.63026000",
        "longitude": "153.15784000",
        "country": "Australia",
        "country_id": 14
    },
    {
        "id": 131643,
        "name": "Daitari",
        "latitude": "21.10000000",
        "longitude": "85.75000000",
        "country": "India",
        "country_id": 101
    },
    {
        "id": 63320,
        "name": "Daitō Shi",
        "latitude": "34.71284000",
        "longitude": "135.63576000",
        "country": "Japan",
        "country_id": 109
    },
    {
        "id": 63321,
        "name": "Daitōchō",
        "latitude": "34.71378000",
        "longitude": "135.62033000",
        "country": "Japan",
        "country_id": 109
    },
    {
        "id": 41406,
        "name": "Daix",
        "latitude": "47.35081000",
        "longitude": "5.00052000",
        "country": "France",
        "country_id": 75
    },
    {
        "id": 19417,
        "name": "Daixi",
        "latitude": "26.81250000",
        "longitude": "119.11417000",
        "country": "China",
        "country_id": 45
    },
    {
        "id": 31053,
        "name": "Dajabón",
        "latitude": "19.54878000",
        "longitude": "-71.70829000",
        "country": "Dominican Republic",
        "country_id": 62
    },
    {
        "id": 85405,
        "name": "Dajal",
        "latitude": "29.55769000",
        "longitude": "70.37614000",
        "country": "Pakistan",
        "country_id": 167
    },
    {
        "id": 65096,
        "name": "Daji",
        "latitude": "-12.32583000",
        "longitude": "44.48861000",
        "country": "Comoros",
        "country_id": 49
    },
    {
        "id": 69664,
        "name": "Dajiedi",
        "latitude": "20.31114000",
        "longitude": "-98.94006000",
        "country": "Mexico",
        "country_id": 142
    },
    {
        "id": 4921,
        "name": "Dakabin",
        "latitude": "-27.22594000",
        "longitude": "152.99097000",
        "country": "Australia",
        "country_id": 14
    },
    {
        "id": 104704,
        "name": "Dakar",
        "latitude": "14.69370000",
        "longitude": "-17.44406000",
        "country": "Senegal",
        "country_id": 195
    },
    {
        "id": 104705,
        "name": "Dakar Department",
        "latitude": "14.71403000",
        "longitude": "-17.45534000",
        "country": "Senegal",
        "country_id": 195
    },
    {
        "id": 144420,
        "name": "Dakbayan sa Bislig",
        "latitude": "8.20996000",
        "longitude": "126.30947000",
        "country": "Philippines",
        "country_id": 174
    },
    {
        "id": 144928,
        "name": "Dakbayan sa Digos",
        "latitude": "6.83333000",
        "longitude": "125.35000000",
        "country": "Philippines",
        "country_id": 174
    },
    {
        "id": 144163,
        "name": "Dakbayan sa Digos",
        "latitude": "6.83333000",
        "longitude": "125.35000000",
        "country": "Philippines",
        "country_id": 174
    },
    {
        "id": 98234,
        "name": "Dakhadayevskiy Rayon",
        "latitude": "42.08333000",
        "longitude": "47.58333000",
        "country": "Russia",
        "country_id": 182
    },
    {
        "id": 76824,
        "name": "Dakingari",
        "latitude": "11.64809000",
        "longitude": "4.06177000",
        "country": "Nigeria",
        "country_id": 161
    },
    {
        "id": 131808,
        "name": "Dakor",
        "latitude": "22.75268000",
        "longitude": "73.14967000",
        "country": "India",
        "country_id": 101
    },
    {
        "id": 76685,
        "name": "Dakoro",
        "latitude": "14.51056000",
        "longitude": "6.76500000",
        "country": "Niger",
        "country_id": 160
    },
    {
        "id": 114973,
        "name": "Dakota",
        "latitude": "43.99025000",
        "longitude": "-89.35651000",
        "country": "United States",
        "country_id": 233
    },
    {
        "id": 114974,
        "name": "Dakota City",
        "latitude": "42.72219000",
        "longitude": "-94.19718000",
        "country": "United States",
        "country_id": 233
    },
    {
        "id": 114975,
        "name": "Dakota City",
        "latitude": "42.41555000",
        "longitude": "-96.41836000",
        "country": "United States",
        "country_id": 233
    },
    {
        "id": 114976,
        "name": "Dakota County",
        "latitude": "44.67189000",
        "longitude": "-93.06544000",
        "country": "United States",
        "country_id": 233
    },
    {
        "id": 114977,
        "name": "Dakota County",
        "latitude": "42.39111000",
        "longitude": "-96.56451000",
        "country": "United States",
        "country_id": 233
    },
    {
        "id": 114978,
        "name": "Dakota Dunes",
        "latitude": "42.48749000",
        "longitude": "-96.48642000",
        "country": "United States",
        "country_id": 233
    },
    {
        "id": 149163,
        "name": "Dakoutun",
        "latitude": "39.58555556",
        "longitude": "117.23638889",
        "country": "China",
        "country_id": 45
    },
    {
        "id": 141918,
        "name": "Dakshin Dinajpur district",
        "latitude": "25.22000000",
        "longitude": "88.76000000",
        "country": "India",
        "country_id": 101
    },
    {
        "id": 131644,
        "name": "Dakshina Kannada",
        "latitude": "12.84000000",
        "longitude": "75.29000000",
        "country": "India",
        "country_id": 101
    },
    {
        "id": 1829,
        "name": "Dalaas",
        "latitude": "47.12446000",
        "longitude": "9.99104000",
        "country": "Austria",
        "country_id": 15
    },
    {
        "id": 52329,
        "name": "Dalaba",
        "latitude": "10.75000000",
        "longitude": "-12.30000000",
        "country": "Guinea",
        "country_id": 92
    },
    {
        "id": 135169,
        "name": "Dalabyggð",
        "latitude": "65.10121000",
        "longitude": "-21.72871000",
        "country": "Iceland",
        "country_id": 100
    },
    {
        "id": 86153,
        "name": "Dalachów",
        "latitude": "51.07732000",
        "longitude": "18.57840000",
        "country": "Poland",
        "country_id": 176
    },
    {
        "id": 82343,
        "name": "Dalaguete",
        "latitude": "9.76120000",
        "longitude": "123.53490000",
        "country": "Philippines",
        "country_id": 174
    },
    {
        "id": 134851,
        "name": "Dalahu",
        "latitude": "34.41667000",
        "longitude": "46.25000000",
        "country": "Iran",
        "country_id": 103
    },
    {
        "id": 19418,
        "name": "Dalai",
        "latitude": "45.50000000",
        "longitude": "124.30000000",
        "country": "China",
        "country_id": 45
    },
    {
        "id": 150330,
        "name": "Dalaki",
        "latitude": "29.43023450",
        "longitude": "51.28279560",
        "country": "Iran",
        "country_id": 103
    },
    {
        "id": 98235,
        "name": "Dalakovo",
        "latitude": "43.23759000",
        "longitude": "44.58964000",
        "country": "Russia",
        "country_id": 182
    },
    {
        "id": 107442,
        "name": "Dalaman",
        "latitude": "36.81691000",
        "longitude": "28.87815000",
        "country": "Turkey",
        "country_id": 225
    },
    {
        "id": 150846,
        "name": "Daland",
        "latitude": "37.03465860",
        "longitude": "55.03712660",
        "country": "Iran",
        "country_id": 103
    },
    {
        "id": 67713,
        "name": "Dalandzadgad",
        "latitude": "43.57083000",
        "longitude": "104.42500000",
        "country": "Mongolia",
        "country_id": 146
    },
    {
        "id": 82344,
        "name": "Dalangin",
        "latitude": "7.85056000",
        "longitude": "122.57833000",
        "country": "Philippines",
        "country_id": 174
    },
    {
        "id": 145172,
        "name": "Dalaoig",
        "latitude": "17.94916667",
        "longitude": "121.71472222",
        "country": "Philippines",
        "country_id": 174
    },
    {
        "id": 82345,
        "name": "Dalaoig",
        "latitude": "17.94917000",
        "longitude": "121.71480000",
        "country": "Philippines",
        "country_id": 174
    },
    {
        "id": 366,
        "name": "Dalar",
        "latitude": "39.97653000",
        "longitude": "44.52649000",
        "country": "Armenia",
        "country_id": 12
    },
    {
        "id": 367,
        "name": "Dalarik",
        "latitude": "40.22790000",
        "longitude": "43.87793000",
        "country": "Armenia",
        "country_id": 12
    },
    {
        "id": 103108,
        "name": "Dalarö",
        "latitude": "59.13306000",
        "longitude": "18.40639000",
        "country": "Sweden",
        "country_id": 213
    },
    {
        "id": 85406,
        "name": "Dalbandin",
        "latitude": "28.88846000",
        "longitude": "64.40616000",
        "country": "Pakistan",
        "country_id": 167
    },
    {
        "id": 49220,
        "name": "Dalbeattie",
        "latitude": "54.93278000",
        "longitude": "-3.82271000",
        "country": "United Kingdom",
        "country_id": 232
    },
    {
        "id": 93890,
        "name": "Dalboșeț",
        "latitude": "44.86399000",
        "longitude": "21.95854000",
        "country": "Romania",
        "country_id": 181
    },
    {
        "id": 4922,
        "name": "Dalby",
        "latitude": "-27.18169000",
        "longitude": "151.26205000",
        "country": "Australia",
        "country_id": 14
    },
    {
        "id": 103109,
        "name": "Dalby",
        "latitude": "55.66655000",
        "longitude": "13.34976000",
        "country": "Sweden",
        "country_id": 213
    },
    {
        "id": 18980,
        "name": "Dalcahue",
        "latitude": "-42.37845000",
        "longitude": "-73.65011000",
        "country": "Chile",
        "country_id": 44
    },
    {
        "id": 79098,
        "name": "Dale",
        "latitude": "60.58639000",
        "longitude": "5.81888000",
        "country": "Norway",
        "country_id": 165
    },
    {
        "id": 79099,
        "name": "Dale",
        "latitude": "61.36353000",
        "longitude": "5.40036000",
        "country": "Norway",
        "country_id": 165
    },
    {
        "id": 114979,
        "name": "Dale",
        "latitude": "38.16894000",
        "longitude": "-86.99000000",
        "country": "United States",
        "country_id": 233
    },
    {
        "id": 114980,
        "name": "Dale",
        "latitude": "40.31285000",
        "longitude": "-78.90419000",
        "country": "United States",
        "country_id": 233
    },
    {
        "id": 114981,
        "name": "Dale City",
        "latitude": "38.63706000",
        "longitude": "-77.31109000",
        "country": "United States",
        "country_id": 233
    },
    {
        "id": 114982,
        "name": "Dale County",
        "latitude": "31.43182000",
        "longitude": "-85.61103000",
        "country": "United States",
        "country_id": 233
    },
    {
        "id": 109528,
        "name": "Dalekoye",
        "latitude": "45.66006000",
        "longitude": "33.08059000",
        "country": "Ukraine",
        "country_id": 230
    },
    {
        "id": 77528,
        "name": "Dalen",
        "latitude": "52.69917000",
        "longitude": "6.75556000",
        "country": "Netherlands",
        "country_id": 156
    },
    {
        "id": 79100,
        "name": "Dalen",
        "latitude": "59.44499000",
        "longitude": "8.00492000",
        "country": "Norway",
        "country_id": 165
    },
    {
        "id": 86154,
        "name": "Daleszyce",
        "latitude": "50.80229000",
        "longitude": "20.80791000",
        "country": "Poland",
        "country_id": 176
    },
    {
        "id": 114983,
        "name": "Daleville",
        "latitude": "31.31017000",
        "longitude": "-85.71299000",
        "country": "United States",
        "country_id": 233
    },
    {
        "id": 114984,
        "name": "Daleville",
        "latitude": "37.40986000",
        "longitude": "-79.91254000",
        "country": "United States",
        "country_id": 233
    },
    {
        "id": 114985,
        "name": "Daleville",
        "latitude": "40.12115000",
        "longitude": "-85.55803000",
        "country": "United States",
        "country_id": 233
    },
    {
        "id": 77529,
        "name": "Dalfsen",
        "latitude": "52.51167000",
        "longitude": "6.25694000",
        "country": "Netherlands",
        "country_id": 156
    },
    {
        "id": 134839,
        "name": "Dalgan",
        "latitude": "27.31667000",
        "longitude": "59.30000000",
        "country": "Iran",
        "country_id": 103
    },
    {
        "id": 49221,
        "name": "Dalgety Bay",
        "latitude": "56.03496000",
        "longitude": "-3.35049000",
        "country": "United Kingdom",
        "country_id": 232
    },
    {
        "id": 9304,
        "name": "Dalgopol",
        "latitude": "43.05000000",
        "longitude": "27.35000000",
        "country": "Bulgaria",
        "country_id": 34
    },
    {
        "id": 114986,
        "name": "Dalhart",
        "latitude": "36.05948000",
        "longitude": "-102.51325000",
        "country": "United States",
        "country_id": 233
    },
    {
        "id": 24586,
        "name": "Dalheim",
        "latitude": "49.82667000",
        "longitude": "8.29528000",
        "country": "Germany",
        "country_id": 82
    },
    {
        "id": 66756,
        "name": "Dalheim",
        "latitude": "49.54083000",
        "longitude": "6.25972000",
        "country": "Luxembourg",
        "country_id": 127
    },
    {
        "id": 8717,
        "name": "Dalhem",
        "latitude": "50.71315000",
        "longitude": "5.72774000",
        "country": "Belgium",
        "country_id": 22
    },
    {
        "id": 131645,
        "name": "Dalhousie",
        "latitude": "32.55219000",
        "longitude": "75.94663000",
        "country": "India",
        "country_id": 101
    },
    {
        "id": 19419,
        "name": "Dali",
        "latitude": "25.58474000",
        "longitude": "100.21229000",
        "country": "China",
        "country_id": 45
    },
    {
        "id": 19420,
        "name": "Dali Baizu Zizhizhou",
        "latitude": "25.68548000",
        "longitude": "100.13104000",
        "country": "China",
        "country_id": 45
    },
    {
        "id": 147036,
        "name": "Dali Chu",
        "latitude": "35.52138889",
        "longitude": "48.02027778",
        "country": "Iran",
        "country_id": 103
    },
    {
        "id": 19421,
        "name": "Dalian",
        "latitude": "38.91222000",
        "longitude": "121.60222000",
        "country": "China",
        "country_id": 45
    },
    {
        "id": 19422,
        "name": "Daliang",
        "latitude": "22.84067000",
        "longitude": "113.25030000",
        "country": "China",
        "country_id": 45
    },
    {
        "id": 19423,
        "name": "Dalianwan",
        "latitude": "39.02861000",
        "longitude": "121.69500000",
        "country": "China",
        "country_id": 45
    },
    {
        "id": 143935,
        "name": "Daliao",
        "latitude": "5.86111111",
        "longitude": "124.95333333",
        "country": "Philippines",
        "country_id": 174
    },
    {
        "id": 82346,
        "name": "Daliao",
        "latitude": "5.86111000",
        "longitude": "124.95333000",
        "country": "Philippines",
        "country_id": 174
    },
    {
        "id": 144680,
        "name": "Dalican",
        "latitude": "6.96666667",
        "longitude": "124.40000000",
        "country": "Philippines",
        "country_id": 174
    },
    {
        "id": 82347,
        "name": "Dalican",
        "latitude": "6.96667000",
        "longitude": "124.40000000",
        "country": "Philippines",
        "country_id": 174
    },
    {
        "id": 82348,
        "name": "Daliciasao",
        "latitude": "9.98590000",
        "longitude": "122.76180000",
        "country": "Philippines",
        "country_id": 174
    },
    {
        "id": 86155,
        "name": "Dalików",
        "latitude": "51.88476000",
        "longitude": "19.11904000",
        "country": "Poland",
        "country_id": 176
    },
    {
        "id": 39154,
        "name": "Dalipebinaw Municipality",
        "latitude": "9.52229000",
        "longitude": "138.08540000",
        "country": "Micronesia",
        "country_id": 143
    },
    {
        "id": 144797,
        "name": "Dalipey",
        "latitude": "16.80000000",
        "longitude": "120.71666667",
        "country": "Philippines",
        "country_id": 174
    },
    {
        "id": 82349,
        "name": "Dalipey",
        "latitude": "16.80000000",
        "longitude": "120.71667000",
        "country": "Philippines",
        "country_id": 174
    },
    {
        "id": 82350,
        "name": "Dalipuga",
        "latitude": "8.31583000",
        "longitude": "124.25472000",
        "country": "Philippines",
        "country_id": 174
    },
    {
        "id": 82351,
        "name": "Dalirig",
        "latitude": "8.37722000",
        "longitude": "124.90139000",
        "country": "Philippines",
        "country_id": 174
    },
    {
        "id": 57457,
        "name": "Daliyat al Karmel",
        "latitude": "32.69383000",
        "longitude": "35.04686000",
        "country": "Israel",
        "country_id": 106
    },
    {
        "id": 54447,
        "name": "Dalj",
        "latitude": "45.48438000",
        "longitude": "18.98610000",
        "country": "Croatia",
        "country_id": 55
    },
    {
        "id": 4923,
        "name": "Dalkeith",
        "latitude": "-31.99517000",
        "longitude": "115.79980000",
        "country": "Australia",
        "country_id": 14
    },
    {
        "id": 49222,
        "name": "Dalkeith",
        "latitude": "55.89317000",
        "longitude": "-3.06806000",
        "country": "United Kingdom",
        "country_id": 232
    },
    {
        "id": 57207,
        "name": "Dalkey",
        "latitude": "53.27833000",
        "longitude": "-6.10028000",
        "country": "Ireland",
        "country_id": 105
    },
    {
        "id": 141919,
        "name": "Dalkola",
        "latitude": "25.87577000",
        "longitude": "87.84009000",
        "country": "India",
        "country_id": 101
    },
    {
        "id": 114987,
        "name": "Dallam County",
        "latitude": "36.27789000",
        "longitude": "-102.60222000",
        "country": "United States",
        "country_id": 233
    },
    {
        "id": 4924,
        "name": "Dallas",
        "latitude": "-37.67083000",
        "longitude": "144.93542000",
        "country": "Australia",
        "country_id": 14
    },
    {
        "id": 62499,
        "name": "Dallas",
        "latitude": "17.98463000",
        "longitude": "-76.71256000",
        "country": "Jamaica",
        "country_id": 108
    },
    {
        "id": 114988,
        "name": "Dallas",
        "latitude": "33.92371000",
        "longitude": "-84.84077000",
        "country": "United States",
        "country_id": 233
    },
    {
        "id": 114989,
        "name": "Dallas",
        "latitude": "35.31653000",
        "longitude": "-81.17619000",
        "country": "United States",
        "country_id": 233
    },
    {
        "id": 114990,
        "name": "Dallas",
        "latitude": "32.78306000",
        "longitude": "-96.80667000",
        "country": "United States",
        "country_id": 233
    },
    {
        "id": 114991,
        "name": "Dallas",
        "latitude": "41.33619000",
        "longitude": "-75.96325000",
        "country": "United States",
        "country_id": 233
    },
    {
        "id": 114992,
        "name": "Dallas",
        "latitude": "44.91928000",
        "longitude": "-123.31705000",
        "country": "United States",
        "country_id": 233
    },
    {
        "id": 114993,
        "name": "Dallas Center",
        "latitude": "41.68443000",
        "longitude": "-93.96106000",
        "country": "United States",
        "country_id": 233
    },
    {
        "id": 114994,
        "name": "Dallas County",
        "latitude": "32.32597000",
        "longitude": "-87.10648000",
        "country": "United States",
        "country_id": 233
    },
    {
        "id": 114995,
        "name": "Dallas County",
        "latitude": "33.96983000",
        "longitude": "-92.65444000",
        "country": "United States",
        "country_id": 233
    },
    {
        "id": 114996,
        "name": "Dallas County",
        "latitude": "37.68041000",
        "longitude": "-93.02366000",
        "country": "United States",
        "country_id": 233
    },
    {
        "id": 114997,
        "name": "Dallas County",
        "latitude": "32.76663000",
        "longitude": "-96.77787000",
        "country": "United States",
        "country_id": 233
    },
    {
        "id": 114998,
        "name": "Dallas County",
        "latitude": "41.68489000",
        "longitude": "-94.03974000",
        "country": "United States",
        "country_id": 233
    },
    {
        "id": 114999,
        "name": "Dallastown",
        "latitude": "39.89954000",
        "longitude": "-76.64025000",
        "country": "United States",
        "country_id": 233
    },
    {
        "id": 17675,
        "name": "Dallenwil",
        "latitude": "46.92420000",
        "longitude": "8.38785000",
        "country": "Switzerland",
        "country_id": 214
    },
    {
        "id": 115000,
        "name": "Dallesport",
        "latitude": "45.61734000",
        "longitude": "-121.17952000",
        "country": "United States",
        "country_id": 233
    },
    {
        "id": 41407,
        "name": "Dallet",
        "latitude": "45.77047000",
        "longitude": "3.23875000",
        "country": "France",
        "country_id": 75
    },
    {
        "id": 24587,
        "name": "Dallgow-Döberitz",
        "latitude": "52.54269000",
        "longitude": "13.05837000",
        "country": "Germany",
        "country_id": 82
    },
    {
        "id": 816,
        "name": "Dalmacio Vélez Sársfield",
        "latitude": "-32.61072000",
        "longitude": "-63.58038000",
        "country": "Argentina",
        "country_id": 11
    },
    {
        "id": 98236,
        "name": "Dalmatovo",
        "latitude": "56.26000000",
        "longitude": "62.93620000",
        "country": "Russia",
        "country_id": 182
    },
    {
        "id": 131646,
        "name": "Dalmau",
        "latitude": "26.06477000",
        "longitude": "81.02980000",
        "country": "India",
        "country_id": 101
    },
    {
        "id": 49223,
        "name": "Dalmellington",
        "latitude": "55.32419000",
        "longitude": "-4.40200000",
        "country": "United Kingdom",
        "country_id": 232
    },
    {
        "id": 4925,
        "name": "Dalmeny",
        "latitude": "-36.16608000",
        "longitude": "150.12912000",
        "country": "Australia",
        "country_id": 14
    },
    {
        "id": 16353,
        "name": "Dalmeny",
        "latitude": "52.33339000",
        "longitude": "-106.76792000",
        "country": "Canada",
        "country_id": 39
    },
    {
        "id": 138225,
        "name": "Dalmine",
        "latitude": "45.64933000",
        "longitude": "9.60617000",
        "country": "Italy",
        "country_id": 107
    },
    {
        "id": 98237,
        "name": "Dalnegorsk",
        "latitude": "44.55745000",
        "longitude": "135.62090000",
        "country": "Russia",
        "country_id": 182
    },
    {
        "id": 98238,
        "name": "Dalnerechensk",
        "latitude": "45.93149000",
        "longitude": "133.73906000",
        "country": "Russia",
        "country_id": 182
    },
    {
        "id": 93891,
        "name": "Dalnic",
        "latitude": "45.92242000",
        "longitude": "25.98741000",
        "country": "Romania",
        "country_id": 181
    },
    {
        "id": 18892,
        "name": "Daloa",
        "latitude": "6.87735000",
        "longitude": "-6.45022000",
        "country": "Cote D'Ivoire (Ivory Coast)",
        "country_id": 54
    },
    {
        "id": 82352,
        "name": "Dalorong",
        "latitude": "7.58583000",
        "longitude": "125.13278000",
        "country": "Philippines",
        "country_id": 174
    },
    {
        "id": 22248,
        "name": "Dalovice",
        "latitude": "50.24779000",
        "longitude": "12.89581000",
        "country": "Czech Republic",
        "country_id": 58
    },
    {
        "id": 49224,
        "name": "Dalry",
        "latitude": "55.70956000",
        "longitude": "-4.72167000",
        "country": "United Kingdom",
        "country_id": 232
    },
    {
        "id": 49225,
        "name": "Dalrymple",
        "latitude": "55.39757000",
        "longitude": "-4.59169000",
        "country": "United Kingdom",
        "country_id": 232
    },
    {
        "id": 103110,
        "name": "Dals Långed",
        "latitude": "58.92555000",
        "longitude": "12.30865000",
        "country": "Sweden",
        "country_id": 213
    },
    {
        "id": 65302,
        "name": "Dalseo-gu",
        "latitude": "35.82569000",
        "longitude": "128.52403000",
        "country": "South Korea",
        "country_id": 116
    },
    {
        "id": 65303,
        "name": "Dalseong-gun",
        "latitude": "35.77467000",
        "longitude": "128.42955000",
        "country": "South Korea",
        "country_id": 116
    },
    {
        "id": 49226,
        "name": "Dalserf",
        "latitude": "55.73333000",
        "longitude": "-3.91667000",
        "country": "United Kingdom",
        "country_id": 232
    },
    {
        "id": 131647,
        "name": "Dalsingh Sarai",
        "latitude": "25.66795000",
        "longitude": "85.83636000",
        "country": "India",
        "country_id": 101
    },
    {
        "id": 103112,
        "name": "Dalsjöfors",
        "latitude": "57.71667000",
        "longitude": "13.08333000",
        "country": "Sweden",
        "country_id": 213
    },
    {
        "id": 49227,
        "name": "Dalston",
        "latitude": "54.84207000",
        "longitude": "-2.98459000",
        "country": "United Kingdom",
        "country_id": 232
    },
    {
        "id": 115001,
        "name": "Dalton",
        "latitude": "34.76980000",
        "longitude": "-84.97022000",
        "country": "United States",
        "country_id": 233
    },
    {
        "id": 115002,
        "name": "Dalton",
        "latitude": "42.47370000",
        "longitude": "-73.16621000",
        "country": "United States",
        "country_id": 233
    },
    {
        "id": 115003,
        "name": "Dalton",
        "latitude": "41.53424000",
        "longitude": "-75.73603000",
        "country": "United States",
        "country_id": 233
    },
    {
        "id": 141256,
        "name": "Dalton",
        "latitude": "40.79894000",
        "longitude": "-81.69541000",
        "country": "United States",
        "country_id": 233
    },
    {
        "id": 115004,
        "name": "Dalton Gardens",
        "latitude": "47.72963000",
        "longitude": "-116.77019000",
        "country": "United States",
        "country_id": 233
    },
    {
        "id": 49228,
        "name": "Dalton in Furness",
        "latitude": "54.15796000",
        "longitude": "-3.17977000",
        "country": "United Kingdom",
        "country_id": 232
    },
    {
        "id": 131648,
        "name": "Daltonganj",
        "latitude": "24.03971000",
        "longitude": "84.06580000",
        "country": "India",
        "country_id": 101
    },
    {
        "id": 146354,
        "name": "Dalu",
        "latitude": "46.54544100",
        "longitude": "24.08882800",
        "country": "Romania",
        "country_id": 181
    },
    {
        "id": 144681,
        "name": "Dalumangcob",
        "latitude": "7.21666667",
        "longitude": "124.30000000",
        "country": "Philippines",
        "country_id": 174
    },
    {
        "id": 82353,
        "name": "Dalumangcob",
        "latitude": "7.21667000",
        "longitude": "124.30000000",
        "country": "Philippines",
        "country_id": 174
    },
    {
        "id": 82354,
        "name": "Dalupaon",
        "latitude": "13.55170000",
        "longitude": "122.94570000",
        "country": "Philippines",
        "country_id": 174
    },
    {
        "id": 144798,
        "name": "Dalupirip",
        "latitude": "16.32611111",
        "longitude": "120.72416667",
        "country": "Philippines",
        "country_id": 174
    },
    {
        "id": 82355,
        "name": "Dalupirip",
        "latitude": "16.32603000",
        "longitude": "120.72414000",
        "country": "Philippines",
        "country_id": 174
    },
    {
        "id": 62500,
        "name": "Dalvey",
        "latitude": "17.90241000",
        "longitude": "-76.25001000",
        "country": "Jamaica",
        "country_id": 108
    },
    {
        "id": 135170,
        "name": "Dalvík",
        "latitude": "65.97018000",
        "longitude": "-18.52861000",
        "country": "Iceland",
        "country_id": 100
    },
    {
        "id": 135171,
        "name": "Dalvíkurbyggð",
        "latitude": "65.87318000",
        "longitude": "-18.60844000",
        "country": "Iceland",
        "country_id": 100
    },
    {
        "id": 4926,
        "name": "Dalwallinu",
        "latitude": "-30.12998000",
        "longitude": "116.98401000",
        "country": "Australia",
        "country_id": 14
    },
    {
        "id": 82356,
        "name": "Dalwangan",
        "latitude": "8.20056000",
        "longitude": "125.04056000",
        "country": "Philippines",
        "country_id": 174
    },
    {
        "id": 115005,
        "name": "Dalworthington Gardens",
        "latitude": "32.70291000",
        "longitude": "-97.15529000",
        "country": "United States",
        "country_id": 233
    },
    {
        "id": 115006,
        "name": "Daly City",
        "latitude": "37.70577000",
        "longitude": "-122.46192000",
        "country": "United States",
        "country_id": 233
    },
    {
        "id": 4927,
        "name": "Dalyellup",
        "latitude": "-33.40844000",
        "longitude": "115.61506000",
        "country": "Australia",
        "country_id": 14
    },
    {
        "id": 115007,
        "name": "Dalzell",
        "latitude": "34.01682000",
        "longitude": "-80.43008000",
        "country": "United States",
        "country_id": 233
    },
    {
        "id": 33911,
        "name": "Dalías",
        "latitude": "36.82179000",
        "longitude": "-2.87138000",
        "country": "Spain",
        "country_id": 207
    },
    {
        "id": 98239,
        "name": "Dal’nekonstantinovskiy Rayon",
        "latitude": "55.83333000",
        "longitude": "44.08333000",
        "country": "Russia",
        "country_id": 182
    },
    {
        "id": 98240,
        "name": "Dal’neye Konstantinovo",
        "latitude": "55.81025000",
        "longitude": "44.09595000",
        "country": "Russia",
        "country_id": 182
    },
    {
        "id": 141920,
        "name": "Dam Dam",
        "latitude": "22.63333333",
        "longitude": "88.42277778",
        "country": "India",
        "country_id": 101
    },
    {
        "id": 144682,
        "name": "Damabalas",
        "latitude": "7.01555556",
        "longitude": "124.51416667",
        "country": "Philippines",
        "country_id": 174
    },
    {
        "id": 82357,
        "name": "Damabalas",
        "latitude": "7.01556000",
        "longitude": "124.51417000",
        "country": "Philippines",
        "country_id": 174
    },
    {
        "id": 15861,
        "name": "Damachava",
        "latitude": "51.75000000",
        "longitude": "23.60000000",
        "country": "Belarus",
        "country_id": 21
    },
    {
        "id": 143375,
        "name": "Damaia",
        "latitude": "38.74527778",
        "longitude": "-9.21833333",
        "country": "Portugal",
        "country_id": 177
    },
    {
        "id": 107444,
        "name": "Damal",
        "latitude": "41.34145000",
        "longitude": "42.83680000",
        "country": "Turkey",
        "country_id": 225
    },
    {
        "id": 131649,
        "name": "Daman",
        "latitude": "20.41431000",
        "longitude": "72.83236000",
        "country": "India",
        "country_id": 101
    },
    {
        "id": 150246,
        "name": "Damaneh",
        "latitude": "33.01758740",
        "longitude": "50.47904490",
        "country": "Iran",
        "country_id": 103
    },
    {
        "id": 31804,
        "name": "Damanhūr",
        "latitude": "31.03408000",
        "longitude": "30.46823000",
        "country": "Egypt",
        "country_id": 65
    },
    {
        "id": 147037,
        "name": "Damaq",
        "latitude": "35.44277778",
        "longitude": "48.82305556",
        "country": "Iran",
        "country_id": 103
    },
    {
        "id": 17315,
        "name": "Damara",
        "latitude": "4.96075000",
        "longitude": "18.70350000",
        "country": "Central African Republic",
        "country_id": 42
    },
    {
        "id": 115008,
        "name": "Damariscotta",
        "latitude": "44.03286000",
        "longitude": "-69.51866000",
        "country": "United States",
        "country_id": 233
    },
    {
        "id": 76825,
        "name": "Damasak",
        "latitude": "13.10518000",
        "longitude": "12.50854000",
        "country": "Nigeria",
        "country_id": 161
    },
    {
        "id": 69665,
        "name": "Damasco",
        "latitude": "17.16161000",
        "longitude": "-91.60058000",
        "country": "Mexico",
        "country_id": 142
    },
    {
        "id": 104988,
        "name": "Damascus",
        "latitude": "33.51020000",
        "longitude": "36.29128000",
        "country": "Syria",
        "country_id": 215
    },
    {
        "id": 115009,
        "name": "Damascus",
        "latitude": "39.28844000",
        "longitude": "-77.20387000",
        "country": "United States",
        "country_id": 233
    },
    {
        "id": 115010,
        "name": "Damascus",
        "latitude": "45.41762000",
        "longitude": "-122.45898000",
        "country": "United States",
        "country_id": 233
    },
    {
        "id": 86156,
        "name": "Damasławek",
        "latitude": "52.83979000",
        "longitude": "17.50062000",
        "country": "Poland",
        "country_id": 176
    },
    {
        "id": 144683,
        "name": "Damatulan",
        "latitude": "7.03888889",
        "longitude": "124.48277778",
        "country": "Philippines",
        "country_id": 174
    },
    {
        "id": 82358,
        "name": "Damatulan",
        "latitude": "7.03889000",
        "longitude": "124.48278000",
        "country": "Philippines",
        "country_id": 174
    },
    {
        "id": 76826,
        "name": "Damaturu",
        "latitude": "11.74697000",
        "longitude": "11.96083000",
        "country": "Nigeria",
        "country_id": 161
    },
    {
        "id": 134840,
        "name": "Damavand",
        "latitude": "35.63005000",
        "longitude": "52.13750000",
        "country": "Iran",
        "country_id": 103
    },
    {
        "id": 143936,
        "name": "Damawato",
        "latitude": "6.70000000",
        "longitude": "124.78333333",
        "country": "Philippines",
        "country_id": 174
    },
    {
        "id": 82359,
        "name": "Damawato",
        "latitude": "6.70000000",
        "longitude": "124.78333000",
        "country": "Philippines",
        "country_id": 174
    },
    {
        "id": 82360,
        "name": "Damayan",
        "latitude": "11.49360000",
        "longitude": "122.55310000",
        "country": "Philippines",
        "country_id": 174
    },
    {
        "id": 41408,
        "name": "Damazan",
        "latitude": "44.29068000",
        "longitude": "0.27694000",
        "country": "France",
        "country_id": 75
    },
    {
        "id": 41409,
        "name": "Dambach-la-Ville",
        "latitude": "48.32379000",
        "longitude": "7.42547000",
        "country": "France",
        "country_id": 75
    },
    {
        "id": 138226,
        "name": "Dambel",
        "latitude": "46.40471000",
        "longitude": "11.09307000",
        "country": "Italy",
        "country_id": 107
    },
    {
        "id": 76827,
        "name": "Damboa",
        "latitude": "11.15534000",
        "longitude": "12.75638000",
        "country": "Nigeria",
        "country_id": 161
    },
    {
        "id": 22249,
        "name": "Dambořice",
        "latitude": "49.03828000",
        "longitude": "16.91757000",
        "country": "Czech Republic",
        "country_id": 58
    },
    {
        "id": 66463,
        "name": "Dambulla",
        "latitude": "7.86000000",
        "longitude": "80.65167000",
        "country": "Sri Lanka",
        "country_id": 208
    },
    {
        "id": 55089,
        "name": "Dame-Marie",
        "latitude": "18.56107000",
        "longitude": "-74.42167000",
        "country": "Haiti",
        "country_id": 95
    },
    {
        "id": 41410,
        "name": "Damelevières",
        "latitude": "48.55930000",
        "longitude": "6.38453000",
        "country": "France",
        "country_id": 75
    },
    {
        "id": 41411,
        "name": "Damery",
        "latitude": "49.07238000",
        "longitude": "3.88036000",
        "country": "France",
        "country_id": 75
    },
    {
        "id": 41412,
        "name": "Damgan",
        "latitude": "47.51799000",
        "longitude": "-2.57698000",
        "country": "France",
        "country_id": 75
    },
    {
        "id": 134625,
        "name": "Damghan",
        "latitude": "36.16790000",
        "longitude": "54.34292000",
        "country": "Iran",
        "country_id": 103
    },
    {
        "id": 69666,
        "name": "Damian Carmona",
        "latitude": "22.09723000",
        "longitude": "-99.29216000",
        "country": "Mexico",
        "country_id": 142
    },
    {
        "id": 11559,
        "name": "Damianópolis",
        "latitude": "-14.54949000",
        "longitude": "-46.19367000",
        "country": "Brazil",
        "country_id": 31
    },
    {
        "id": 31805,
        "name": "Damietta",
        "latitude": "31.41648000",
        "longitude": "31.81332000",
        "country": "Egypt",
        "country_id": 65
    },
    {
        "id": 41413,
        "name": "Damigny",
        "latitude": "48.45000000",
        "longitude": "0.06667000",
        "country": "France",
        "country_id": 75
    },
    {
        "id": 82361,
        "name": "Damilag",
        "latitude": "8.35472000",
        "longitude": "124.81222000",
        "country": "Philippines",
        "country_id": 174
    },
    {
        "id": 11560,
        "name": "Damião",
        "latitude": "-6.67843000",
        "longitude": "-35.92205000",
        "country": "Brazil",
        "country_id": 31
    },
    {
        "id": 102851,
        "name": "Dammam",
        "latitude": "26.43442000",
        "longitude": "50.10326000",
        "country": "Saudi Arabia",
        "country_id": 194
    },
    {
        "id": 41414,
        "name": "Dammarie",
        "latitude": "48.34314000",
        "longitude": "1.49444000",
        "country": "France",
        "country_id": 75
    },
    {
        "id": 41415,
        "name": "Dammarie-les-Lys",
        "latitude": "48.51667000",
        "longitude": "2.65000000",
        "country": "France",
        "country_id": 75
    },
    {
        "id": 41416,
        "name": "Dammartin-en-Goële",
        "latitude": "49.05423000",
        "longitude": "2.67777000",
        "country": "France",
        "country_id": 75
    },
    {
        "id": 8718,
        "name": "Damme",
        "latitude": "51.25147000",
        "longitude": "3.28144000",
        "country": "Belgium",
        "country_id": 22
    },
    {
        "id": 24588,
        "name": "Damme",
        "latitude": "52.52157000",
        "longitude": "8.19793000",
        "country": "Germany",
        "country_id": 82
    },
    {
        "id": 131809,
        "name": "Damnagar",
        "latitude": "21.69232000",
        "longitude": "71.51747000",
        "country": "India",
        "country_id": 101
    },
    {
        "id": 86157,
        "name": "Damnica",
        "latitude": "54.50025000",
        "longitude": "17.27154000",
        "country": "Poland",
        "country_id": 176
    },
    {
        "id": 106485,
        "name": "Damnoen Saduak",
        "latitude": "13.51825000",
        "longitude": "99.95469000",
        "country": "Thailand",
        "country_id": 219
    },
    {
        "id": 131651,
        "name": "Damoh",
        "latitude": "23.75000000",
        "longitude": "79.58333000",
        "country": "India",
        "country_id": 101
    },
    {
        "id": 82362,
        "name": "Damolog",
        "latitude": "10.77271000",
        "longitude": "124.00639000",
        "country": "Philippines",
        "country_id": 174
    },
    {
        "id": 11561,
        "name": "Damolândia",
        "latitude": "-16.25109000",
        "longitude": "-49.34505000",
        "country": "Brazil",
        "country_id": 31
    },
    {
        "id": 82363,
        "name": "Damortis",
        "latitude": "16.24051000",
        "longitude": "120.40565000",
        "country": "Philippines",
        "country_id": 174
    },
    {
        "id": 145908,
        "name": "Damortis",
        "latitude": "16.24055556",
        "longitude": "120.40555556",
        "country": "Philippines",
        "country_id": 174
    },
    {
        "id": 24589,
        "name": "Damp",
        "latitude": "54.58469000",
        "longitude": "10.01785000",
        "country": "Germany",
        "country_id": 82
    },
    {
        "id": 41417,
        "name": "Damparis",
        "latitude": "47.07556000",
        "longitude": "5.41398000",
        "country": "France",
        "country_id": 75
    },
    {
        "id": 4928,
        "name": "Dampier",
        "latitude": "-20.66275000",
        "longitude": "116.71256000",
        "country": "Australia",
        "country_id": 14
    },
    {
        "id": 4929,
        "name": "Dampier Peninsula",
        "latitude": "-16.93241000",
        "longitude": "122.86559000",
        "country": "Australia",
        "country_id": 14
    },
    {
        "id": 41418,
        "name": "Dampierre",
        "latitude": "47.15498000",
        "longitude": "5.74167000",
        "country": "France",
        "country_id": 75
    },
    {
        "id": 41419,
        "name": "Dampierre-en-Burly",
        "latitude": "47.76143000",
        "longitude": "2.51962000",
        "country": "France",
        "country_id": 75
    },
    {
        "id": 41420,
        "name": "Dampierre-en-Yvelines",
        "latitude": "48.70000000",
        "longitude": "1.98333000",
        "country": "France",
        "country_id": 75
    },
    {
        "id": 41421,
        "name": "Dampierre-les-Bois",
        "latitude": "47.50639000",
        "longitude": "6.91279000",
        "country": "France",
        "country_id": 75
    },
    {
        "id": 41422,
        "name": "Dampierre-sur-Salon",
        "latitude": "47.55719000",
        "longitude": "5.67970000",
        "country": "France",
        "country_id": 75
    },
    {
        "id": 56259,
        "name": "Dampit",
        "latitude": "-8.21162000",
        "longitude": "112.74934000",
        "country": "Indonesia",
        "country_id": 102
    },
    {
        "id": 41423,
        "name": "Dampmart",
        "latitude": "48.88854000",
        "longitude": "2.74095000",
        "country": "France",
        "country_id": 75
    },
    {
        "id": 145467,
        "name": "Dampol",
        "latitude": "14.90138889",
        "longitude": "120.82194444",
        "country": "Philippines",
        "country_id": 174
    },
    {
        "id": 82364,
        "name": "Dampol",
        "latitude": "14.90128000",
        "longitude": "120.82187000",
        "country": "Philippines",
        "country_id": 174
    },
    {
        "id": 41424,
        "name": "Damprichard",
        "latitude": "47.24413000",
        "longitude": "6.88121000",
        "country": "France",
        "country_id": 75
    },
    {
        "id": 82365,
        "name": "Damulog",
        "latitude": "7.48361000",
        "longitude": "124.94306000",
        "country": "Philippines",
        "country_id": 174
    },
    {
        "id": 41425,
        "name": "Damville",
        "latitude": "48.86930000",
        "longitude": "1.07458000",
        "country": "France",
        "country_id": 75
    },
    {
        "id": 77530,
        "name": "Damwâld",
        "latitude": "53.29046000",
        "longitude": "5.99785000",
        "country": "Netherlands",
        "country_id": 156
    },
    {
        "id": 65304,
        "name": "Damyang-gun",
        "latitude": "35.33976000",
        "longitude": "126.99125000",
        "country": "South Korea",
        "country_id": 116
    },
    {
        "id": 1830,
        "name": "Damüls",
        "latitude": "47.28034000",
        "longitude": "9.89164000",
        "country": "Austria",
        "country_id": 15
    },
    {
        "id": 76828,
        "name": "Dan Gora",
        "latitude": "11.53485000",
        "longitude": "8.15224000",
        "country": "Nigeria",
        "country_id": 161
    },
    {
        "id": 106486,
        "name": "Dan Khun Thot",
        "latitude": "15.20850000",
        "longitude": "101.77138000",
        "country": "Thailand",
        "country_id": 219
    },
    {
        "id": 76829,
        "name": "Dan Sadau",
        "latitude": "11.29621000",
        "longitude": "6.49520000",
        "country": "Nigeria",
        "country_id": 161
    },
    {
        "id": 115011,
        "name": "Dana",
        "latitude": "35.32928000",
        "longitude": "-82.37540000",
        "country": "United States",
        "country_id": 233
    },
    {
        "id": 115012,
        "name": "Dana Point",
        "latitude": "33.46697000",
        "longitude": "-117.69811000",
        "country": "United States",
        "country_id": 233
    },
    {
        "id": 18893,
        "name": "Danané",
        "latitude": "7.25957000",
        "longitude": "-8.15498000",
        "country": "Cote D'Ivoire (Ivory Coast)",
        "country_id": 54
    },
    {
        "id": 82366,
        "name": "Danao",
        "latitude": "9.55421000",
        "longitude": "123.75648000",
        "country": "Philippines",
        "country_id": 174
    },
    {
        "id": 49229,
        "name": "Danbury",
        "latitude": "51.71645000",
        "longitude": "0.58245000",
        "country": "United Kingdom",
        "country_id": 232
    },
    {
        "id": 115013,
        "name": "Danbury",
        "latitude": "36.40930000",
        "longitude": "-80.20588000",
        "country": "United States",
        "country_id": 233
    },
    {
        "id": 115014,
        "name": "Danbury",
        "latitude": "29.22830000",
        "longitude": "-95.34494000",
        "country": "United States",
        "country_id": 233
    },
    {
        "id": 115015,
        "name": "Danbury",
        "latitude": "41.39482000",
        "longitude": "-73.45401000",
        "country": "United States",
        "country_id": 233
    },
    {
        "id": 115016,
        "name": "Danbury",
        "latitude": "43.52563000",
        "longitude": "-71.86175000",
        "country": "United States",
        "country_id": 233
    },
    {
        "id": 49230,
        "name": "Danby",
        "latitude": "54.46606000",
        "longitude": "-0.91073000",
        "country": "United Kingdom",
        "country_id": 232
    },
    {
        "id": 115017,
        "name": "Danby",
        "latitude": "43.34618000",
        "longitude": "-72.99538000",
        "country": "United States",
        "country_id": 233
    },
    {
        "id": 82367,
        "name": "Dancagan",
        "latitude": "7.60917000",
        "longitude": "125.00417000",
        "country": "Philippines",
        "country_id": 174
    },
    {
        "id": 82368,
        "name": "Dancalan",
        "latitude": "9.98210000",
        "longitude": "122.73860000",
        "country": "Philippines",
        "country_id": 174
    },
    {
        "id": 67296,
        "name": "Dancu",
        "latitude": "46.75818000",
        "longitude": "28.20716000",
        "country": "Moldova",
        "country_id": 144
    },
    {
        "id": 93892,
        "name": "Dancu",
        "latitude": "47.15417000",
        "longitude": "27.66623000",
        "country": "Romania",
        "country_id": 181
    },
    {
        "id": 4930,
        "name": "Dandaragan",
        "latitude": "-30.54142000",
        "longitude": "115.46132000",
        "country": "Australia",
        "country_id": 14
    },
    {
        "id": 153647,
        "name": "Dande",
        "latitude": "-8.11330000",
        "longitude": "13.76520000",
        "country": "Angola",
        "country_id": 7
    },
    {
        "id": 131652,
        "name": "Dandeli",
        "latitude": "15.26667000",
        "longitude": "74.61667000",
        "country": "India",
        "country_id": 101
    },
    {
        "id": 4931,
        "name": "Dandenong",
        "latitude": "-37.98333000",
        "longitude": "145.20000000",
        "country": "Australia",
        "country_id": 14
    },
    {
        "id": 4932,
        "name": "Dandenong North",
        "latitude": "-37.96649000",
        "longitude": "145.20810000",
        "country": "Australia",
        "country_id": 14
    },
    {
        "id": 49231,
        "name": "Danderhall",
        "latitude": "55.91434000",
        "longitude": "-3.11062000",
        "country": "United Kingdom",
        "country_id": 232
    },
    {
        "id": 147590,
        "name": "Dandi",
        "latitude": "21.32988000",
        "longitude": "72.62484000",
        "country": "India",
        "country_id": 101
    },
    {
        "id": 150582,
        "name": "Dandi",
        "latitude": "36.54939420",
        "longitude": "47.59371740",
        "country": "Iran",
        "country_id": 103
    },
    {
        "id": 19424,
        "name": "Dandong",
        "latitude": "40.12917000",
        "longitude": "124.39472000",
        "country": "China",
        "country_id": 45
    },
    {
        "id": 85407,
        "name": "Dandot RS",
        "latitude": "32.64167000",
        "longitude": "72.97500000",
        "country": "Pakistan",
        "country_id": 167
    },
    {
        "id": 115018,
        "name": "Dandridge",
        "latitude": "36.01537000",
        "longitude": "-83.41489000",
        "country": "United States",
        "country_id": 233
    },
    {
        "id": 115019,
        "name": "Dane",
        "latitude": "43.25055000",
        "longitude": "-89.50151000",
        "country": "United States",
        "country_id": 233
    },
    {
        "id": 115020,
        "name": "Dane County",
        "latitude": "43.06735000",
        "longitude": "-89.41832000",
        "country": "United States",
        "country_id": 233
    },
    {
        "id": 150715,
        "name": "Danesfahan",
        "latitude": "35.81572280",
        "longitude": "49.72441600",
        "country": "Iran",
        "country_id": 103
    },
    {
        "id": 146355,
        "name": "Daneș",
        "latitude": "46.22111111",
        "longitude": "24.70472222",
        "country": "Romania",
        "country_id": 181
    },
    {
        "id": 82369,
        "name": "Dangcalan",
        "latitude": "12.91680000",
        "longitude": "123.58380000",
        "country": "Philippines",
        "country_id": 174
    },
    {
        "id": 76830,
        "name": "Dange",
        "latitude": "12.85313000",
        "longitude": "5.34572000",
        "country": "Nigeria",
        "country_id": 161
    },
    {
        "id": 106768,
        "name": "Danghara",
        "latitude": "38.09578000",
        "longitude": "69.33998000",
        "country": "Tajikistan",
        "country_id": 217
    },
    {
        "id": 144799,
        "name": "Danglas",
        "latitude": "17.70090000",
        "longitude": "120.65560000",
        "country": "Philippines",
        "country_id": 174
    },
    {
        "id": 82370,
        "name": "Danglas",
        "latitude": "17.70090000",
        "longitude": "120.65560000",
        "country": "Philippines",
        "country_id": 174
    },
    {
        "id": 16137,
        "name": "Dangriga",
        "latitude": "16.96970000",
        "longitude": "-88.23313000",
        "country": "Belize",
        "country_id": 23
    },
    {
        "id": 142127,
        "name": "Dangs (India)",
        "latitude": "20.75000000",
        "longitude": "73.75000000",
        "country": "India",
        "country_id": 101
    },
    {
        "id": 41426,
        "name": "Dangé-Saint-Romain",
        "latitude": "46.93333000",
        "longitude": "0.60000000",
        "country": "France",
        "country_id": 75
    },
    {
        "id": 115021,
        "name": "Dania Beach",
        "latitude": "26.05231000",
        "longitude": "-80.14393000",
        "country": "United States",
        "country_id": 233
    },
    {
        "id": 115022,
        "name": "Daniel",
        "latitude": "40.47079000",
        "longitude": "-111.41463000",
        "country": "United States",
        "country_id": 233
    },
    {
        "id": 21671,
        "name": "Daniel Flores",
        "latitude": "9.33554000",
        "longitude": "-83.66940000",
        "country": "Costa Rica",
        "country_id": 53
    },
    {
        "id": 62501,
        "name": "Daniel Town",
        "latitude": "18.46395000",
        "longitude": "-77.61592000",
        "country": "Jamaica",
        "country_id": 108
    },
    {
        "id": 115023,
        "name": "Daniels",
        "latitude": "37.74327000",
        "longitude": "-81.12408000",
        "country": "United States",
        "country_id": 233
    },
    {
        "id": 115024,
        "name": "Daniels County",
        "latitude": "48.78381000",
        "longitude": "-105.54857000",
        "country": "United States",
        "country_id": 233
    },
    {
        "id": 115025,
        "name": "Danielson",
        "latitude": "41.80260000",
        "longitude": "-71.88591000",
        "country": "United States",
        "country_id": 233
    },
    {
        "id": 115026,
        "name": "Danielsville",
        "latitude": "34.12428000",
        "longitude": "-83.22126000",
        "country": "United States",
        "country_id": 233
    },
    {
        "id": 98241,
        "name": "Danilov",
        "latitude": "58.19080000",
        "longitude": "40.17171000",
        "country": "Russia",
        "country_id": 182
    },
    {
        "id": 67349,
        "name": "Danilovgrad",
        "latitude": "42.55384000",
        "longitude": "19.14608000",
        "country": "Montenegro",
        "country_id": 147
    },
    {
        "id": 146874,
        "name": "Danilovka Volgograd Oblast",
        "latitude": "50.36666667",
        "longitude": "44.11666667",
        "country": "Russia",
        "country_id": 182
    },
    {
        "id": 98242,
        "name": "Danilovskiy Rayon",
        "latitude": "58.16667000",
        "longitude": "40.08333000",
        "country": "Russia",
        "country_id": 182
    },
    {
        "id": 131080,
        "name": "Daniëlskuil",
        "latitude": "-28.18873000",
        "longitude": "23.53951000",
        "country": "South Africa",
        "country_id": 204
    },
    {
        "id": 76831,
        "name": "Danja",
        "latitude": "11.37710000",
        "longitude": "7.56097000",
        "country": "Nigeria",
        "country_id": 161
    },
    {
        "id": 19425,
        "name": "Danjiangkou",
        "latitude": "32.54278000",
        "longitude": "111.50861000",
        "country": "China",
        "country_id": 45
    },
    {
        "id": 41427,
        "name": "Danjoutin",
        "latitude": "47.61822000",
        "longitude": "6.86204000",
        "country": "France",
        "country_id": 75
    },
    {
        "id": 76832,
        "name": "Dankalwa",
        "latitude": "11.74449000",
        "longitude": "12.18545000",
        "country": "Nigeria",
        "country_id": 161
    },
    {
        "id": 76833,
        "name": "Dankama",
        "latitude": "13.29782000",
        "longitude": "7.79492000",
        "country": "Nigeria",
        "country_id": 161
    },
    {
        "id": 131653,
        "name": "Dankaur",
        "latitude": "28.35121000",
        "longitude": "77.55508000",
        "country": "India",
        "country_id": 101
    },
    {
        "id": 98243,
        "name": "Danki",
        "latitude": "54.91806000",
        "longitude": "37.57009000",
        "country": "Russia",
        "country_id": 182
    },
    {
        "id": 24590,
        "name": "Dankmarshausen",
        "latitude": "50.92527000",
        "longitude": "10.01601000",
        "country": "Germany",
        "country_id": 82
    },
    {
        "id": 98244,
        "name": "Dankov",
        "latitude": "53.25155000",
        "longitude": "39.15553000",
        "country": "Russia",
        "country_id": 182
    },
    {
        "id": 98245,
        "name": "Dankovskiy Rayon",
        "latitude": "53.25000000",
        "longitude": "39.16667000",
        "country": "Russia",
        "country_id": 182
    },
    {
        "id": 52233,
        "name": "Dankunku",
        "latitude": "13.56667000",
        "longitude": "-15.31667000",
        "country": "Gambia The",
        "country_id": 80
    },
    {
        "id": 82371,
        "name": "Danlugan",
        "latitude": "7.89139000",
        "longitude": "123.37278000",
        "country": "Philippines",
        "country_id": 174
    },
    {
        "id": 53932,
        "name": "Danlí",
        "latitude": "14.03333000",
        "longitude": "-86.58333000",
        "country": "Honduras",
        "country_id": 97
    },
    {
        "id": 24591,
        "name": "Danndorf",
        "latitude": "52.42472000",
        "longitude": "10.91286000",
        "country": "Germany",
        "country_id": 82
    },
    {
        "id": 41428,
        "name": "Dannemarie",
        "latitude": "47.63034000",
        "longitude": "7.11903000",
        "country": "France",
        "country_id": 75
    },
    {
        "id": 41429,
        "name": "Dannemarie-sur-Crête",
        "latitude": "47.20488000",
        "longitude": "5.87018000",
        "country": "France",
        "country_id": 75
    },
    {
        "id": 115027,
        "name": "Dannemora",
        "latitude": "44.72143000",
        "longitude": "-73.72375000",
        "country": "United States",
        "country_id": 233
    },
    {
        "id": 24592,
        "name": "Dannenberg",
        "latitude": "53.09670000",
        "longitude": "11.09001000",
        "country": "Germany",
        "country_id": 82
    },
    {
        "id": 41430,
        "name": "Dannes",
        "latitude": "50.58799000",
        "longitude": "1.61381000",
        "country": "France",
        "country_id": 75
    },
    {
        "id": 24593,
        "name": "Dannewerk",
        "latitude": "54.48333000",
        "longitude": "9.50000000",
        "country": "Germany",
        "country_id": 82
    },
    {
        "id": 24594,
        "name": "Dannstadt-Schauernheim",
        "latitude": "49.44028000",
        "longitude": "8.30861000",
        "country": "Germany",
        "country_id": 82
    },
    {
        "id": 9167,
        "name": "Dano",
        "latitude": "11.14640000",
        "longitude": "-3.05784000",
        "country": "Burkina Faso",
        "country_id": 35
    },
    {
        "id": 19426,
        "name": "Danshui",
        "latitude": "22.79840000",
        "longitude": "114.46716000",
        "country": "China",
        "country_id": 45
    },
    {
        "id": 143937,
        "name": "Dansuli",
        "latitude": "6.64075000",
        "longitude": "124.58258000",
        "country": "Philippines",
        "country_id": 174
    },
    {
        "id": 82372,
        "name": "Dansuli",
        "latitude": "6.64075000",
        "longitude": "124.58258000",
        "country": "Philippines",
        "country_id": 174
    },
    {
        "id": 115028,
        "name": "Dansville",
        "latitude": "42.56090000",
        "longitude": "-77.69611000",
        "country": "United States",
        "country_id": 233
    },
    {
        "id": 147591,
        "name": "Danta",
        "latitude": "24.18861111",
        "longitude": "72.76583333",
        "country": "India",
        "country_id": 101
    },
    {
        "id": 138227,
        "name": "Danta",
        "latitude": "46.56700000",
        "longitude": "12.52055000",
        "country": "Italy",
        "country_id": 107
    },
    {
        "id": 153519,
        "name": "Dantewada",
        "latitude": "18.89984800",
        "longitude": "81.33867520",
        "country": "India",
        "country_id": 101
    },
    {
        "id": 69667,
        "name": "Dantzibojay",
        "latitude": "20.43934000",
        "longitude": "-99.58587000",
        "country": "Mexico",
        "country_id": 142
    },
    {
        "id": 115029,
        "name": "Danvers",
        "latitude": "42.57509000",
        "longitude": "-70.93005000",
        "country": "United States",
        "country_id": 233
    },
    {
        "id": 115030,
        "name": "Danvers",
        "latitude": "40.52948000",
        "longitude": "-89.17731000",
        "country": "United States",
        "country_id": 233
    },
    {
        "id": 62502,
        "name": "Danvers Pen",
        "latitude": "17.92880000",
        "longitude": "-76.47586000",
        "country": "Jamaica",
        "country_id": 108
    },
    {
        "id": 16354,
        "name": "Danville",
        "latitude": "45.78337000",
        "longitude": "-72.01580000",
        "country": "Canada",
        "country_id": 39
    },
    {
        "id": 115031,
        "name": "Danville",
        "latitude": "35.05398000",
        "longitude": "-93.39352000",
        "country": "United States",
        "country_id": 233
    },
    {
        "id": 115032,
        "name": "Danville",
        "latitude": "34.41454000",
        "longitude": "-87.08751000",
        "country": "United States",
        "country_id": 233
    },
    {
        "id": 115033,
        "name": "Danville",
        "latitude": "37.64563000",
        "longitude": "-84.77217000",
        "country": "United States",
        "country_id": 233
    },
    {
        "id": 115034,
        "name": "Danville",
        "latitude": "39.76060000",
        "longitude": "-86.52639000",
        "country": "United States",
        "country_id": 233
    },
    {
        "id": 115035,
        "name": "Danville",
        "latitude": "40.12448000",
        "longitude": "-87.63002000",
        "country": "United States",
        "country_id": 233
    },
    {
        "id": 115036,
        "name": "Danville",
        "latitude": "42.91259000",
        "longitude": "-71.12450000",
        "country": "United States",
        "country_id": 233
    },
    {
        "id": 115037,
        "name": "Danville",
        "latitude": "40.96342000",
        "longitude": "-76.61273000",
        "country": "United States",
        "country_id": 233
    },
    {
        "id": 115038,
        "name": "Danville",
        "latitude": "37.82159000",
        "longitude": "-121.99996000",
        "country": "United States",
        "country_id": 233
    },
    {
        "id": 115039,
        "name": "Danville",
        "latitude": "36.58597000",
        "longitude": "-79.39502000",
        "country": "United States",
        "country_id": 233
    },
    {
        "id": 141257,
        "name": "Danville",
        "latitude": "40.44756000",
        "longitude": "-82.26016000",
        "country": "United States",
        "country_id": 233
    },
    {
        "id": 19427,
        "name": "Danyang",
        "latitude": "26.35102000",
        "longitude": "119.48030000",
        "country": "China",
        "country_id": 45
    },
    {
        "id": 65305,
        "name": "Danyang-gun",
        "latitude": "36.98615000",
        "longitude": "128.36945000",
        "country": "South Korea",
        "country_id": 116
    },
    {
        "id": 82373,
        "name": "Dao",
        "latitude": "11.39370000",
        "longitude": "122.68560000",
        "country": "Philippines",
        "country_id": 174
    },
    {
        "id": 82374,
        "name": "Dao",
        "latitude": "12.09980000",
        "longitude": "125.43720000",
        "country": "Philippines",
        "country_id": 174
    },
    {
        "id": 148190,
        "name": "Dao",
        "latitude": "12.09972222",
        "longitude": "125.43722222",
        "country": "Philippines",
        "country_id": 174
    },
    {
        "id": 19428,
        "name": "Daokou",
        "latitude": "35.56389000",
        "longitude": "114.50583000",
        "country": "China",
        "country_id": 45
    },
    {
        "id": 138228,
        "name": "Daone",
        "latitude": "45.94720000",
        "longitude": "10.62107000",
        "country": "Italy",
        "country_id": 107
    },
    {
        "id": 153225,
        "name": "Daoudi",
        "latitude": "33.31214030",
        "longitude": "44.32584820",
        "country": "Iraq",
        "country_id": 104
    },
    {
        "id": 18894,
        "name": "Daoukro",
        "latitude": "7.05910000",
        "longitude": "-3.96310000",
        "country": "Cote D'Ivoire (Ivory Coast)",
        "country_id": 54
    },
    {
        "id": 41431,
        "name": "Daoulas",
        "latitude": "48.36089000",
        "longitude": "-4.25977000",
        "country": "France",
        "country_id": 75
    },
    {
        "id": 144421,
        "name": "Dapa",
        "latitude": "9.76666667",
        "longitude": "126.05000000",
        "country": "Philippines",
        "country_id": 174
    },
    {
        "id": 82375,
        "name": "Dapa",
        "latitude": "9.75944000",
        "longitude": "126.05306000",
        "country": "Philippines",
        "country_id": 174
    },
    {
        "id": 105163,
        "name": "Dapaong",
        "latitude": "10.86225000",
        "longitude": "0.20762000",
        "country": "Togo",
        "country_id": 220
    },
    {
        "id": 82376,
        "name": "Dapawan",
        "latitude": "12.40694000",
        "longitude": "122.02778000",
        "country": "Philippines",
        "country_id": 174
    },
    {
        "id": 76834,
        "name": "Dapchi",
        "latitude": "12.49536000",
        "longitude": "11.49977000",
        "country": "Nigeria",
        "country_id": 161
    },
    {
        "id": 148128,
        "name": "Dapdap",
        "latitude": "12.06194444",
        "longitude": "125.48805556",
        "country": "Philippines",
        "country_id": 174
    },
    {
        "id": 82377,
        "name": "Dapdap",
        "latitude": "12.06200000",
        "longitude": "125.48810000",
        "country": "Philippines",
        "country_id": 174
    },
    {
        "id": 82378,
        "name": "Dapdap",
        "latitude": "12.21550000",
        "longitude": "123.76620000",
        "country": "Philippines",
        "country_id": 174
    },
    {
        "id": 82379,
        "name": "Dapdapan",
        "latitude": "11.49430000",
        "longitude": "122.63140000",
        "country": "Philippines",
        "country_id": 174
    },
    {
        "id": 115040,
        "name": "Daphne",
        "latitude": "30.60353000",
        "longitude": "-87.90360000",
        "country": "United States",
        "country_id": 233
    },
    {
        "id": 15706,
        "name": "Daphu",
        "latitude": "26.96667000",
        "longitude": "89.38333000",
        "country": "Bhutan",
        "country_id": 26
    },
    {
        "id": 82380,
        "name": "Dapitan",
        "latitude": "10.26244000",
        "longitude": "123.94970000",
        "country": "Philippines",
        "country_id": 174
    },
    {
        "id": 82381,
        "name": "Dapitan",
        "latitude": "8.65610000",
        "longitude": "123.42270000",
        "country": "Philippines",
        "country_id": 174
    },
    {
        "id": 147731,
        "name": "Dapoli",
        "latitude": "17.75888889",
        "longitude": "73.18555556",
        "country": "India",
        "country_id": 101
    },
    {
        "id": 4933,
        "name": "Dapto",
        "latitude": "-34.50386000",
        "longitude": "150.79416000",
        "country": "Australia",
        "country_id": 14
    },
    {
        "id": 147038,
        "name": "Daqdaqabad",
        "latitude": "35.18277778",
        "longitude": "48.78833333",
        "country": "Iran",
        "country_id": 103
    },
    {
        "id": 19429,
        "name": "Daqiao",
        "latitude": "26.61500000",
        "longitude": "118.90639000",
        "country": "China",
        "country_id": 45
    },
    {
        "id": 19430,
        "name": "Daqing",
        "latitude": "46.58333000",
        "longitude": "125.00000000",
        "country": "China",
        "country_id": 45
    },
    {
        "id": 153269,
        "name": "Dar Chaabane",
        "latitude": "36.47000000",
        "longitude": "10.75000000",
        "country": "Tunisia",
        "country_id": 224
    },
    {
        "id": 31311,
        "name": "Dar Chioukh",
        "latitude": "34.89638000",
        "longitude": "3.48543000",
        "country": "Algeria",
        "country_id": 4
    },
    {
        "id": 31312,
        "name": "Dar el Beïda",
        "latitude": "36.71333000",
        "longitude": "3.21250000",
        "country": "Algeria",
        "country_id": 4
    },
    {
        "id": 109063,
        "name": "Dar es Salaam",
        "latitude": "-6.82349000",
        "longitude": "39.26951000",
        "country": "Tanzania",
        "country_id": 218
    },
    {
        "id": 67103,
        "name": "Dar Ould Zidouh",
        "latitude": "32.31247000",
        "longitude": "-6.90494000",
        "country": "Morocco",
        "country_id": 149
    },
    {
        "id": 147039,
        "name": "Dar Qeshlaq",
        "latitude": "35.49222222",
        "longitude": "48.05583333",
        "country": "Iran",
        "country_id": 103
    },
    {
        "id": 130831,
        "name": "Dar Sad",
        "latitude": "12.90700000",
        "longitude": "44.97840000",
        "country": "Yemen",
        "country_id": 245
    },
    {
        "id": 150085,
        "name": "Dar-Naim",
        "latitude": "18.03333333",
        "longitude": "-15.96666667",
        "country": "Mauritania",
        "country_id": 139
    },